id,name,city,contact_email,contact_fax,contact_name,contact_phone,contact_role,latitude,longitude,operational,rack_capacity,state,storage_capacity,street,operator_id,owner_id,terminaling_capacity,truck_bays,type,zip,pipeline_access,rail_access,truck_access,marine_access,irs_motor_fuel_terminal_id
1,Abbeville,Abbeville,,,,,,29.839555,-92.165915,TRUE,,LA,,24823 LA Hwy 333,43,43,,,terminal,70510,,,,,T-72-LA-2413
2,Aberdeen NUS,Aberdeen,terry.mcdonald@nustarenergy.com,6052254529,Terry McDonald,6052254090,Terminal Contact,45.575481,-98.515221,TRUE,,SD,176000,Hwy 281,6,6,,2,terminal,57401,in,none,both,none,T-46-SD-3550
3,Aberdeen,Aberdeen,,,,,,33.847638,-88.514694,TRUE,,MS,,20096 Norm Connell Drive,224,224,,,terminal,39730,,,,,T-72-MS-2422
4,Aberdeen,Aberdeen,,,,,,35.143,-79.4504,TRUE,,NC,, ,22,22,,,terminal,28315,,,,,0
5,Abernathy,Abernathy,robbie.fowler@nustarenergy.com,8067572397,Robbie Fowler,8067572395,Terminal Contact,33.875757,-101.869419,TRUE,,TX,160000,1315 Farm to Market 54,6,6,,2,terminal,79311,in,none,out,none,T-75-TX-2650
6,Abilene,Abilene,,,,,,32.542408,-99.770393,TRUE,,TX,,Hwy 277 N Industrial District,42,42,,,terminal,79601,,,,,T-75-TX-2652
7,Adak,Adak,,,,,,51.829438,-176.629994,TRUE,,AK,,Adak,217,217,,,terminal,99546,,,,,T-91-AK-4541
8,Agana,Ordot,,,,,,13.373,144.6986,TRUE,,GU,, ,220,220,,,terminal,96924,,,,,0
9,Akron,Akron,,,,,,41.098698,-81.488242,TRUE,,OH,,999 Home Avenue,5,5,,,terminal,44310,,,,,T-34-OH-3159
10,Alamogordo,Alamogordo,,,Leland Bain,575-437-7500,Terminal Manager,32.81402,-105.976692,TRUE,,NM,120210,6026 Hwy 54 South,58,58,,,terminal,88310,in,,both,,T-85-NM-4259
11,Albany BPL,Albany,,,,,,42.616834,-73.763601,TRUE,,NY,,301 Normanskill St.,197,197,,,terminal,12202,,,,,T-14-NY-1401
12,Albany,Albany,,,,,,42.642404,-73.752146,TRUE,,NY,,50 Church Street,20,20,,,terminal,12202,,,,,T-14-NY-1403
13,Albany KMI,Albany,,,,,,31.549249,-84.198057,TRUE,,GA,93000,1603 W Oakridge Dr,4,469,,,terminal,31721,in,,,,T-58-GA-2500
14,Albany TMP,Albany,,,,2294354014,,31.580305,-84.183494,TRUE,,GA,203000,1162 Gillionville Road,8,8,,3,terminal,31707,,,,,T-58-GA-2502
15,Albany,Albany,,,,,,31.4974,-84.1155,TRUE,,GA,, ,53,53,,,terminal,31705,,,,,0
16,Albemarle,Albemarle,,,,,,35.3833,-80.1964,TRUE,,NC,, ,154,154,,,terminal,28001,,,,,0
17,Albuquerque,Albuquerque,,,,,,35.04599,-106.646985,TRUE,,NM,,3200 Broadway SE within city,65,65,,,terminal,87105,,,,,T-85-NM-4251
18,Albuquerque,Albuquerque,,,,,,35.04663,-106.647188,TRUE,,NM,,3209 Broadway Southeast,48,48,,,terminal,87105,,,,,T-85-NM-4255
19,Albuquerque,Albuquerque,,,,,,35.036535,-106.621883,TRUE,,NM,,3531 Access Road C SE,15,15,,,terminal,87106,,,,,T-85-NM-4261
20,Albuquerque,Albuquerque,,,,,,35.1296,-106.631,TRUE,,NM,, ,83,83,,,terminal,87107,,,,,0
21,Albuquerque NUS,Albuquerque,larry.nelson@nustarenergy.com,5058770680,Larry Nelson,5058779210,Terminal Contact,34.9915,-106.658,TRUE,,NM,245000,6348 State Road 303 SW,6,476,,3,terminal,87105,in,none,both,none,T-85-NM-4253
22,Albuquerque P66,Albuquerque,,,,,,34.9914,-106.66,TRUE,,NM,244000,6356 Desert Road SE,7,475,,3,terminal,87105,in,,both,,T-85-NM-4254
23,Alexandria,West Alexandria,,3207622538,,3207621193,,45.893533,-95.387723,TRUE,,MN,,709 3rd Avenue,2,2,,,terminal,56308,,,,,T-41-MN-3412
24,Algo,Louisville,,,,,,38.2325,-85.8297,TRUE,,KY,, ,3,3,,,terminal,40211,,,,,0
25,Algona Asphalt,Algona,,,,515-295-2883,,43.0768,-94.2168,TRUE,,IA,,832 North Main,14,14,,,terminal,50511,,,,,0
26,Allentown,Allentown,,,,,,40.628767,-75.431294,TRUE,,PA,,1134 North Quebec Street,28,28,,,terminal,18103,,,,,T-23-PA-1701
27,Allentown,Allentown,,,,,,40.6287,-75.4312,TRUE,,PA,, ,37,37,,,terminal,18103,,,,,0
28,Alma,Alma,,,,,,31.5494,-82.5361,TRUE,,GA,, ,53,53,,,terminal,31510,,,,,0
29,Alto,Alto,,,,,,42.8562,-85.3706,TRUE,,MI,, ,50,50,,,terminal,49302,,,,,0
30,Altoona,Altoona,,,,,,40.462134,-78.430538,TRUE,,PA,,Burns Avenue,28,28,,,terminal,16601,,,,,T-25-PA-1767
31,Altoona,Altoona,,,,,,40.508219,-78.382635,TRUE,,PA,,6033 Sixth Avenue,21,21,,,terminal,16602,,,,,T-25-PA-1785
32,Altoona,Altoona,,,,,,40.489433,-78.349874,TRUE,,PA,,Route 764 Sugar Run Road,5,5,,,terminal,16601,,,,,T-25-PA-1788
33,Altoona,Altoona,,,,,,40.4671,-78.4264,TRUE,,PA,, ,49,49,,,terminal,16602,,,,,0
34,Altoona,Williamsport,,,,,,41.241,-76.9856,TRUE,,PA,, ,37,37,,,terminal,17702,,,,,0
35,Amandaville River,Saint Albans,,,,,,38.3881,-81.8233,TRUE,,WV,, ,148,148,,,terminal,25177,,,,,0
36,Amarillo East,Amarillo,,,,,,35.20202,-101.751383,TRUE,,TX,,7939 SE 3rd Avenue,33,33,,,terminal,79104,,,,,T-75-TX-2693
37,Amarillo NUS,Amarillo,andy.murdock@nustarenergy.com,8063727989,Andy Murdock,8063797966,Terminal Contact,35.265085,-101.88681,TRUE,,TX,255000,4200 West Cliffside,6,6,,4,terminal,79124,both,none,both,none,T-75-TX-2653
38,Amarillo P66,Amarillo,,,,,,35.26552,-101.891148,TRUE,,TX,277000,4300 Cliffside Dr,7,475,,5,terminal,79124,both,,both,,T-75-TX-2654
39,Amelia,Morgan City,,,,,,29.697653,-91.265374,TRUE,,LA,,141 Offshore Lane,13,13,,,terminal,70380,,,,,T-72-LA-2412
40,Americus,Americus,,,,2299243464,,32.054771,-84.305486,TRUE,,GA,93000,173 US Highway 280 West,8,8,,2,terminal,31709,,,,,T-58-GA-2505
41,Anacortes,Anacortes,,,,,,48.497448,-122.55724,TRUE,,WA,,Marches Point Five Miles,18,18,,,terminal,98221,,,,,T-91-WA-4400
42,Anacortes,Anacortes,,,,,,48.460434,-122.527563,TRUE,,WA,,West March Point Road,17,17,,,terminal,98221,,,,,T-91-WA-4428
43,Anaheim,Anaheim,,,,,,33.866553,-117.837473,TRUE,,CA,,1477 Jefferson,4,134,,,terminal,92806,,,,,T-33-CA-4750
44,Anchorage,Anchorage,,,,,,61.181964,-149.993141,TRUE,,AK,,6000 Dehaviland Ave.,15,15,,,terminal,99502,,,,,T-91-AK-4520
45,Anchorage,Anchorage,,,,,,61.215602,-149.897568,TRUE,,AK,,7th Avenue & H Street,32,32,,,terminal,99501,,,,,T-91-AK-4538
46,Anchorage ANDV,Anchorage,,,,,,61.23324,-149.890919,TRUE,,AK,,1076 Ocean Dock Road,17,17,,,terminal,99501,,,,,T-92-AK-4501
47,Anchorage,Anchorage,,,,,,69.216237,-146.787467,TRUE,,AK,,Lat 70.3238  Lon -149.6051,423,423,,,terminal,99519,,,,,T-92-AK-4578
48,Anchorage,Adak,,,,,,51.88,-176.6576,TRUE,,AK,, ,313,313,,,terminal,99546,,,,,0
49,Anchorage,Anchorage,,,,,,61.2296,-149.8908,TRUE,,AK,,0,14,14,,,terminal,99501,,,,,0
50,Andrews AFB,Andrews Air Force Base,todd.wiskur@nustarenergy.com,3015996402,Todd Wiskur,3015996400,Terminal Contact,38.8266,-76.8586,TRUE,,MD,72000,"Building 3014, East Perimeter Rd",6,6,,0,terminal,20331,out,none,none,in,0
51,Aniak,Chuathbaluk,,,,,,61.582067,-159.535235,TRUE,,AK,,River Rd.,32,32,,,terminal,99557,,,,,T-91-AK-4544
52,Aniak,Lime Village,,,,,,61.3505,-155.4378,TRUE,,AK,, ,34,34,,,terminal,99673,,,,,0
53,Anniston,Anniston,,,,,,33.591721,-85.889638,TRUE,,AL,,2625 Highway 78 East,45,45,,,terminal,36203,,,,,T-63-AL-2333
54,Anse La Butte,Breaux Bridge,,,,,,30.2618,-91.9457,TRUE,,LA,, ,22,22,,,terminal,70517,,,,,0
55,Apex Tank,Apex,,,,,,35.7055,-78.8355,TRUE,,NC,, ,388,388,,,terminal,27539,,,,,0
56,Arcadia,Arcadia,,,,,,32.554239,-92.930869,TRUE,,LA,,Highway 80 East,12,12,,,terminal,71001,,,,,T-72-LA-2351
57,Arcadia,Arcadia,,,,,,32.554239,-92.930869,TRUE,,LA,,Highway 80 East,5,5,,,terminal,71001,,,,,T-72-LA-2353
58,Ardmore,Ardmore,,,,,,34.156627,-97.179214,TRUE,,OK,,One Valero Way,102,102,,,terminal,73401,,,,,T-73-OK-2600
59,Ardmore Plant,Ardmore,,,,,,34.2015,-97.1168,TRUE,,OK,, ,11,11,,,terminal,73401,,,,,0
60,Argentine,Kansas City,,,,,,39.078906,-94.659039,TRUE,,KS,,2201 Argentine Blvd,33,33,,,terminal,66106,,,,,T-48-KS-3657
61,Argo,Summit-Argo,,7084962540,Greg West,7084581330,Terminal Manager,41.768943,-87.825929,TRUE,,IL,2493108,8500 West 68th Street,4,472,,,terminal,60501,,,,,T-36-IL-3305
62,Argo,Summit-Argo,,,,,,41.76331,-87.828923,TRUE,,IL,,8600 West 71st. Street,1,1,,,terminal,60501,,,,,T-36-IL-3315
63,Argo Harlem,Berwyn,,,Greg West,,Terminal Manager,41.805617,-87.801113,TRUE,,IL,568000,4811 South Harlem Avenue,4,470,,,terminal,60402,both,,,,T-36-IL-3302
64,Ark City,Arkansas City,,,,,,37.0619,-97.0381,TRUE,,KS,, ,90,90,,,terminal,67005,,,,,0
65,Arkansas City,East Arkansas City,,,,8708772404,,33.6052,-91.2155,TRUE,,AR,446000,Highway 4,8,8,,0,terminal,71630,,,,,0
66,Arlington,Arlington,,,,,,38.885484,-77.099113,TRUE,,VA,,11 Air Cargo Rd.,174,174,,,terminal,22201,,,,,T-54-VA-1686
67,Arlington Heights,Arlington Heights,,,,,,42.02798,-87.959808,TRUE,,IL,,3231 Busse Road,3,3,,,terminal,60005,,,,,T-36-IL-3307
68,Arlington Heights,Arlington Heights,,,,,,42.029629,-87.946295,TRUE,,IL,,1605 E. Algonquin Road,18,18,,,terminal,60005,,,,,T-36-IL-3316
69,Arlington Heights,Arlington Heights,,,,,,42.024826,-87.948245,TRUE,,IL,,2304 Terminal Drive,9,9,,,terminal,60005,,,,,T-36-IL-3318
70,Arlington Heights,Arlington Heights,,,,,,42.024914,-87.954974,TRUE,,IL,,2316 Terminal Drive,9,9,,,terminal,60005,,,,,T-36-IL-3304
71,Arlington Heights,Arlington Heights,,,,,,42.024227,-87.949903,TRUE,,IL,,3400 South Badger Road,41,41,,,terminal,60005,,,,,T-72-IL-0001
72,Arlington Heights,Arlington Heights,,,,,,42.028033,-87.959807,TRUE,,IL,,3223 Busse Road,41,41,,,terminal,60005,,,,,T-72-IL-0003
73,Armstrong,Goliad,,,,,,28.6681,-97.3881,TRUE,,TX,, ,26,26,,,terminal,77963,,,,,0
74,Artesia,Artesia,,,,,,32.842734,-104.391066,TRUE,,NM,,501 E Main,30,30,,,terminal,88210,,,,,T-85-NM-4256
75,Artesia,Artesia,,,,,,32.8659,-104.3954,TRUE,,NM,, ,83,83,,,terminal,88210,,,,,0
76,Ashkum,Ashkum,,,,,,40.876259,-87.973929,TRUE,,IL,,Rt 49 South,80,80,,,terminal,60911,,,,,T-37-IL-3364
77,Ashkum,Ashkum,,,,,,40.8363,-87.8648,TRUE,,IL,, ,91,91,,,terminal,60911,,,,,0
78,Aston,Aston,,,,,,39.849358,-75.425933,TRUE,,PA,,4041 Market Street,5,5,,,terminal,19014,,,,,T-23-PA-1746
79,Athens,Athens,,,,,,39.974981,-89.713653,TRUE,,IL,,18349 State Hwy 29,80,80,,,terminal,62613,,,,,T-37-IL-3372
80,Athens,Athens,,,,,,33.986266,-83.419643,TRUE,,GA,389000,3460 Jefferson Road,4,469,,,terminal,30607,in,,,,T-58-GA-2506
81,Athens,Athens,,,,7065432254,,33.986017,-83.419078,TRUE,,GA,203000,3450 Jefferson Road,8,8,,4,terminal,30607,,,,,T-58-GA-2508
82,Atlanta,Atlanta,,,,,,33.656824,-84.423648,TRUE,,GA,,#1 Fuel Farm Road (No Cgo.),97,97,,,terminal,30354,,,,,T-58-GA-2512
83,Atlanta,Atlanta,,,,,,33.656824,-84.423648,TRUE,,GA,,1360 NLVR Road (FIS),97,97,,,terminal,30354,,,,,T-58-GA-2513
84,Atlanta,Atlanta,,,,,,33.656824,-84.423648,TRUE,,GA,,1625 Fuel Farm Rd. (City),97,97,,,terminal,30354,,,,,T-58-GA-2536
85,Atlanta,Atlanta,,,,,,33.801668,-84.443231,TRUE,,GA,,1550 Marietta Dr NW,104,104,,,terminal,30318,,,,,T-58-GA-2553
86,Atlanta,Atlanta,,,,,,33.656824,-84.423648,TRUE,,GA,,1500 Fuel Farm Road,115,115,,,terminal,30354,,,,,T-58-GA-2555
87,Atlanta,Cartersville,,,,,,34.1409,-84.8489,TRUE,,GA,, ,81,81,,,terminal,30120,,,,,0
88,Atmore,Atmore,,,,,,31.136018,-87.447674,TRUE,,AL,,4745 Ross Road,195,195,,,terminal,36502,,,,,T-72-AL-2344
89,Augusta,Augusta,,,,,,33.3838,-81.9849,TRUE,,GA,, ,81,81,,,terminal,30906,,,,,0
90,Aurora,Aurora,,,,,,41.311704,-81.292977,TRUE,,OH,,0,89,89,,,terminal,44202,,,,,T-34-OH-3168
91,Aurora,Aurora,,(303) 344-1512,,(303) 344-1511,,39.7582,-104.813,TRUE,,CO,600000,15000 East Smith Road,2,477,,4,terminal,80011,in,,both,,T-84-CO-4100
92,Aurora,Aurora,,,,,,41.315,-81.3455,TRUE,,OH,, ,95,95,,,terminal,44202,,,,,0
93,Austin,Austin,,,,512-928-9226,,30.32425,-97.628176,TRUE,,TX,,9011 Johnny Morris Road,14,14,,,terminal,78724,,,,,T-74-TX-2706
94,Austin Plant,Austin,,,,,,30.3772,-97.7373,TRUE,,TX,, ,11,11,,,terminal,78759,,,,,0
95,Avery Lane,Portsmouth,,,,,,43.109364,-70.812958,TRUE,,NH,,372 Shattuck Way,61,61,,,terminal,3801,,,,,T-02-NH-1050
96,Avondale,Westwego,,,,,,29.919672,-90.195711,TRUE,,LA,,5450 River Road,35,35,,,terminal,70094,,,,,T-72-LA-2400
97,Bainbridge,Bainbridge,,,,,,30.903841,-84.543993,TRUE,,GA,,1803 East Shotwell St.,10,10,,,terminal,39819,,,,,T-58-GA-2514
98,Bainbridge,Bainbridge,,,,2292460955,,30.903634,-84.542002,TRUE,,GA,367000,1909 East Shotwell Street,8,8,,3,terminal,39819,,,,,T-58-GA-2515
99,Bainbridge,Bainbridge,,,,,,30.8971,-84.6136,TRUE,,GA,, ,11,11,,,terminal,31717,,,,,0
100,Bairstow,Daggett,,,,7602542616,,34.875598,-116.886936,TRUE,,CA,126165,34277 Yermo Daggett Road,4,4,,2,terminal,92327,in,,,,T-33-CA-4761
101,Bakersfield,Delano,,,,,,35.29669,-118.918571,TRUE,,CA,,7724 East Panama Lane,301,301,,,terminal,93216,,,,,T-77-CA-4655
102,Bakersfield,Bakersfield,,,,,,35.382161,-119.074141,TRUE,,CA,,2436 Fruitvale Avenue,294,294,,,terminal,93308,,,,,T-77-CA-4657
103,Bakersfield,Bakersfield,,,,,,35.395369,-119.046552,TRUE,,CA,,3542 Shell St.,248,248,,,terminal,93308,,,,,T-77-CA-4664
104,Bakersfield,Bakersfield,,,,,,35.3986,-119.0543,TRUE,,CA,, ,26,26,,,terminal,93308,,,,,0
105,Bakersfield,Bakersfield,,,,,,35.3951,-119.0464,TRUE,,CA,, ,420,420,,,terminal,93308,,,,,0
106,Baldwin,Baldwin,,,,,,29.825662,-91.540394,TRUE,,LA,,163 Gordy Rd,169,169,,,terminal,70514,,,,,T-72-LA-2397
107,Baltimore BPL,Curtis Bay,,,,,,39.209678,-76.585614,TRUE,,MD,,6200 Pennington Avenue,1,1,,,terminal,21226,,,,,T-52-MD-1550
108,Baltimore NUS,Curtis Bay,don.lauer@nustarenergy.com,4103540161,Don Lauer,4103556262,Terminal Contact,39.243615,-76.577165,TRUE,,MD,832000,1800 Frankfurst Avenue,6,6,,3,terminal,21226,in,both,both,both,T-52-MD-1560
109,Baltimore MOT,Curtis Bay,,,,,,39.235896,-76.56552,TRUE,,MD,,2400 Petrolia Ave.,10,10,,,terminal,21226,,,,,T-52-MD-1561
110,Baltimore,Baltimore,,,,,,39.173866,-76.671519,TRUE,,MD,,Balto/Wash. Airport,15,15,,,terminal,21240,,,,,T-52-MD-1569
111,Baltimore SUN,Curtis Bay,,,,,,39.2307,-76.5708,TRUE,,MD,, ,5,5,,,terminal,21226,,,,,0
112,Baltimore,Curtis Bay,,,,,,39.2402,-76.5689,TRUE,,MD,, ,214,214,,,terminal,21226,,,,,0
113,Baltimore,Baltimore,,,,,,39.2746,-76.5905,TRUE,,MD,, ,69,69,,,terminal,21230,,,,,0
114,Baltimore North,Baltimore,,,,,,39.303879,-76.556653,TRUE,,MD,,5101 Erdman Avenue,59,59,,,terminal,21213,,,,,T-52-MD-1554
115,Baltimore South,Baltimore,,,,,,39.273151,-76.570369,TRUE,,MD,,1622 South Clinton Street,59,59,,,terminal,21224,,,,,T-52-MD-1559
116,Baltimore West,Curtis Bay,,,,,,39.24112,-76.577189,TRUE,,MD,,3100 Vera Street,63,63,,,terminal,21226,,,,,T-52-MD-1563
117,Baltimore West,Curtis Bay,,,,,,39.2413,-76.5766,TRUE,,MD,, ,305,305,,,terminal,21226,,,,,0
118,Bangor,Bangor,,,,,,44.782,-68.7814,TRUE,,ME,,730 Lower Main Street,1,1,,,terminal,4401,,,,,T-01-ME-1000
119,Barber's Point/Thomas Malone,Kapolei,,,,,,21.299201,-158.10146,TRUE,,HI,,91-119 Hanua Street,57,57,,,terminal,96707,,,,,T-99-HI-4551
120,Barge Division,Seward,,,,,,60.1029,-149.44,TRUE,,AK,, ,31,31,,,terminal,99664,,,,,0
121,Barstow,Barstow,,,,,,34.892919,-117.078705,TRUE,,CA,,200 North Avenue H,33,33,,,terminal,92311,,,,,T-33-CA-4749
122,Barton,Saint Paul,,,,,,44.9015,-93.0199,TRUE,,MN,, ,414,414,,,terminal,55119,,,,,0
123,Bastrop,Cedar Creek,,,,512-332-2150,,30.104708,-97.41685,TRUE,,TX,,115 Mount Olive Road,14,14,,,terminal,78612,,,,,T-74-TX-2752
124,Baton Rouge XOM,Baton Rouge,,,,,,30.488966,-91.158289,TRUE,,LA,,3329 Scenic Highway,16,16,,,terminal,70805,,,,,T-72-LA-2358
125,Baton Rouge,Baton Rouge,,,,,,30.4506,-91.1544,TRUE,,LA,,0,27,27,,,terminal,70806,,,,,0
126,Baton Rouge,Sunshine,,,,,,30.2866,-91.151,TRUE,,LA,, ,155,155,,,terminal,70780,,,,,0
127,Baton Rouge ELS,Port Hudson,,,,,,30.7197,-91.2734,TRUE,,LA,, ,398,398,,,terminal,70791,,,,,0
128,Bay City,Bay City,,,,,,43.618055,-83.86405,TRUE,,MI,,1806 Marquette,3,3,,,terminal,48706,,,,,T-38-MI-3032
129,Bay City,Bay City,,,,,,28.798156,-95.651058,TRUE,,TX,,2450 FM 3057,5,5,,,terminal,77414,,,,,T-76-TX-2828
130,Bayonne BPL,Bayonne,,,,,,40.670858,-74.109486,TRUE,,NJ,,Lower Hook Road,1,1,,,terminal,7002,,,,,T-22-NJ-1500
131,Bayonne IMTT,Bayonne,,,,,,40.658765,-74.105824,TRUE,,NJ,,250 East 22nd St.,35,35,,,terminal,7002,,,,,T-22-NJ-1503
132,Bayonne,Port Johnson,,,,,,40.6523,-74.1018,TRUE,,NJ,, ,105,105,,,terminal,7002,,,,,0
133,Beaumont,Beaumont,,,,,,29.964835,-94.048536,TRUE,,TX,,9406 West Port Arthur Rd,10,10,,,terminal,77705,,,,,T-76-TX-2783
134,Beaumont P66,Nederland,,,,,,29.9857,-94.0015,TRUE,,TX,2400000,128 Magnolia Ave,7,7,,1,terminal,77627,,,,,T-76-TX-2787
135,Beaumont,Beaumont,,,,,,29.981662,-94.059357,TRUE,,TX,,15651 W. Port Arthur Rd.,5,5,,,terminal,77705,,,,,T-76-TX-2798
136,Beaumont,Beaumont,,,,,,30.0658,-94.0714,TRUE,,TX,, ,16,16,,,terminal,77711,,,,,0
137,Beaumont Marine West,Beaumont,,,,,,30.0215,-94.0489,TRUE,,TX,, ,26,26,,,terminal,77705,,,,,0
138,Belen,Belen,,,,,,34.659617,-106.768329,TRUE,,NM,,106 N. First St.,33,33,,,terminal,87002,,,,,T-86-NM-4264
139,Belle Chasse,Pilottown,,,,,,29.2906,-89.3553,TRUE,,LA,, ,93,93,,,terminal,70081,,,,,0
140,Belle Vernon,Belle Vernon,,,,,,40.128359,-79.857759,TRUE,,PA,,200 Speers Road,89,89,,,terminal,15012,,,,,T-25-PA-1790
141,Belle Vernon,Belle Vernon,,,,,,40.1247,-79.8772,TRUE,,PA,, ,95,95,,,terminal,15012,,,,,0
142,Bellevue,Bellevue,,,,,,41.26785,-82.813069,TRUE,,OH,,24424 N. Prairie Rd.,87,87,,,terminal,44811,,,,,T-31-OH-3125
143,Bellevue MRO,Bellevue,,,,,,41.216488,-82.793687,TRUE,,OH,,Rural Route 4,3,3,,,terminal,44811,,,,,T-34-OH-3166
144,Bellevue,Bellevue,,4022929475,,4022922824,,41.117415,-95.932006,TRUE,,NE,,13029 S 13th Street,2,2,,,terminal,68123,,,,,T-39-NE-3612
145,Belmont,Philadelphia,,,,,,39.9214,-75.1921,TRUE,,PA,, ,5,5,,,terminal,19145,,,,,0
146,Belton,Belton,,,,8643385812,,34.552504,-82.491828,TRUE,,SC,,14033 Highway 20 North,8,8,,3,terminal,29627,,,,,T-57-SC-2050
147,Belton,Belton,,,,,,34.436873,-82.483177,TRUE,,SC,,Hwy 20 North,1,1,,,terminal,29627,,,,,T-57-SC-2051
148,Belton,Belton,,,,,,34.549896,-82.492192,TRUE,,SC,,14315 State Rt. 20,3,3,,,terminal,29627,,,,,T-57-SC-2053
149,Benicia,Benicia,,,,,,38.075923,-122.143157,TRUE,,CA,,3410 East Second Street,102,102,,,terminal,94510,,,,,T-68-CA-4603
150,Benton Il - Asphalt,Benton,,,,,,37.9917,-88.9158,TRUE,,IL,, ,3,3,,,terminal,62812,,,,,0
151,Berwick,Berwick,,,,,,29.667273,-91.238376,TRUE,,LA,,100 Spirit Lane,13,13,,,terminal,70342,,,,,T-72-LA-2415
152,Bethel,Bethel,,,,,,60.785723,-161.779651,TRUE,,AK,,1120 Standard Oil Road,32,32,,,terminal,99559,,,,,T-91-AK-4579
153,Bethel,Bethel,,,,,,60.7826,-161.7787,TRUE,,AK,, ,34,34,,,terminal,99559,,,,,0
154,Bettendorf BPL,Bettendorf,kboslett@buckeye.com,,,(563) 529-4023,,41.5253,-90.4894,TRUE,,IA,237400,75 South 31st Street,1,1,,,terminal,52722,both,,both,both,T-42-IA-3450
155,Bettendorf FHR,Bettendorf,,,,,,41.5239,-90.4775,TRUE,,IA,,4100 Elm Street,14,14,,,terminal,52722,,,,,0
156,Bettendorf MPL,Bettendorf,matthew.stevenson@magellanlp.com,5633550962,Matthew Stevenson,5633552931,,41.5321,-90.4695,TRUE,,IA,170000,312 South Bellingham Street,2,477,,,terminal,52722,in,,out,in,T-42-IA-3471
157,Bettendorf USO,Bettendorf,rjensen@usoil.com,,Rick Jensen,(920) 831-8898,Terminal Manager,41.525125,-90.491841,TRUE,,IA,,2925 Depot Street,19,19,,,terminal,52722,in,,out,in,T-42-IA-3452
158,Big Flats,Big Flats,,,,,,42.1431,-76.93165,TRUE,,NY,,3351 St. Rt. 352,99,99,,,terminal,14814,,,,,T-16-NY-1471
159,Big Flats,Big Flats,,,,,,42.1288,-76.9605,TRUE,,NY,, ,272,272,,,terminal,14814,,,,,0
160,Big Sandy,Big Sandy,,,,,,32.58764,-95.108032,TRUE,,TX,,Highway 155 and Sabine River,42,42,,,terminal,75755,,,,,T-76-TX-2784
161,Big Sandy - Asphalt,Catlettsburg,,,,,,38.4338,-82.606,TRUE,,KY,, ,3,3,,,terminal,41129,,,,,0
162,Big Spring,Big Spring,,,,,,32.27328,-101.373968,TRUE,,TX,,East IS-20 & Refinery Rd,177,177,,,terminal,79720,,,,,T-75-TX-2656
163,Billings,Billings,,,,,,45.7823,-108.4951,TRUE,,MT,88000,23rd & Fourth Ave South,7,475,,3,terminal,59101,,,,,T-81-MT-4000
164,Billings,Billings,,,,,,45.8066,-108.4335,TRUE,,MT,,607 Exxon Rd.,16,16,,,terminal,59101,,,,,T-81-MT-4007
165,Billings Plant,Billings,,,,,,45.6866,-108.7029,TRUE,,MT,, ,302,302,,,terminal,59106,,,,,0
166,Birmingham,Birmingham,,,,,,33.461271,-86.87784,TRUE,,AL,,2200 25th St Southwest,9,9,,,terminal,35211,,,,,T-63-AL-2302
167,Birmingham CVX,Birmingham,,,,,,33.459668,-86.878425,TRUE,,AL,,2400 28th St Southwest,12,12,,,terminal,35211,,,,,T-63-AL-2301
168,Birmingham MRO,Birmingham,,,,,,33.455208,-86.87853,TRUE,,AL,,2704 28th St Southwest,3,3,,,terminal,35211,,,,,T-63-AL-2306
169,Birmingham KMI,Birmingham,,,,,,33.459356,-86.875323,TRUE,,AL,164000,2635 Balsam Avenue SW,4,469,,,terminal,35211,in,,,,T-63-AL-2307
170,Birmingham,Birmingham,,,,,,33.449015,-86.889412,TRUE,,AL,,2601 Wilson Road,10,10,,,terminal,35221,,,,,T-63-AL-2308
171,Birmingham MPL,Birmingham,,(205) 925 8547,,(205) 925 8546,,33.459049,-86.872635,TRUE,,AL,,2400 Nabors Road,2,2,,,terminal,35211,,,,,T-63-AL-2309
172,Birmingham TMP,Birmingham,,,,2059251824,,33.476746,-86.852532,TRUE,,AL,178000,1600 Mims Ave SW,8,8,,2,terminal,35211,,,,,T-63-AL-2312
173,Birmingham,Birmingham,,,,,,33.457454,-86.877183,TRUE,,AL,,2529 28th Street SW,332,332,,,terminal,35211,,,,,T-63-AL-2340
174,Birmingham,Birmingham,,,,,,33.450519,-86.870813,TRUE,,AL,,2700 Ishkooda Wenonah Rd.,262,262,,,terminal,35211,,,,,T-72-AL-2343
175,Birmingham,Birmingham,,,,,,33.5355,-86.8295,TRUE,,AL,, ,410,410,,,terminal,35204,,,,,0
176,Birmingport,Mulga,,,,,,33.5607,-87.108,TRUE,,AL,, ,11,11,,,terminal,35118,,,,,0
177,Blaine,Blaine,,,,,,48.888714,-122.734087,TRUE,,WA,,4519 Grandview,52,52,,,terminal,98230,,,,,T-91-WA-4418
178,Blakeley,Mobile,,,,,,30.7065,-88.0388,TRUE,,AL,, ,21,21,,,terminal,36603,,,,,0
179,Blakeley,Mobile,,,,,,30.6323,-88.1543,TRUE,,AL,, ,27,27,,,terminal,36693,,,,,0
180,Blakeley Island,Mobile,,,,,,30.6449,-88.1325,TRUE,,AL,, ,13,13,,,terminal,36693,,,,,0
181,Blawnox,Pittsburgh,,,,,,40.498,-79.8548,TRUE,,PA,, ,5,5,,,terminal,15238,,,,,0
182,Bloomfield,Blanco,,,,,,36.69664,-107.971145,TRUE,,NM,,# 50 County Road 4990,48,48,,,terminal,87412,,,,,T-85-NM-4257
183,Bloomington,Bloomington,,,,,,34.057955,-117.369372,TRUE,,CA,,2395 S Riverside Avenue,17,17,,,terminal,92316,,,,,T-33-CA-4753
184,Bloomington,Bloomington,,,,,,34.062854,-117.370834,TRUE,,CA,,2307 S. Riverside Ave.,18,18,,,terminal,92316,,,,,T-33-CA-4758
185,Bloomington,Bloomington,,,,,,34.063905,-117.37703,TRUE,,CA,,19700 Slover Ave. PL25000,25,25,,,terminal,92316,,,,,T-33-CA-4794
186,Blue Island,Blue Island,,,,,,41.65472,-87.714162,TRUE,,IL,,3600 W 131st Street,66,66,,,terminal,60406,,,,,T-36-IL-3300
187,Blue Island,Blue Island,robert.latz@nustarenergy.com,7083711550,Robert Latz,7083885801,Terminal Contact,41.65816,-87.700204,TRUE,,IL,722000,3210 West 131st Street,6,6,,1,terminal,60406,,,,,T-36-IL-3310
188,Boise,Boise,,,,,,43.607751,-116.25404,TRUE,,ID,,321 North Curtis Road,40,40,,,terminal,83706,,,,,T-82-ID-4150
189,Boise,Boise,,,,,,43.606655,-116.248875,TRUE,,ID,,201 N. Phillipi,17,17,,,terminal,83706,,,,,T-82-ID-4151
190,Boise,Boise,,,,,,43.605304,-116.24834,TRUE,,ID,,70 North Philipi Road,430,430,,,terminal,83706,,,,,T-82-ID-4152
191,Boise Asphalt,Boise,,,,,,43.5635,-116.1834,TRUE,,ID,, ,77,77,,,terminal,83716,,,,,0
192,Boligee,Boligee,,,,,,32.737366,-87.967724,TRUE,,AL,,2081 County Rd 89,438,438,,,terminal,35443,,,,,T-76-AL-0001
193,Boligee,Gainesville,,,,,,32.7837,-88.0485,TRUE,,AL,, ,288,288,,,terminal,35464,,,,,0
194,Bono,Bono,,,,,,35.893468,-90.793624,TRUE,,AR,,15211 US 63 North,45,45,,,terminal,72416,,,,,T-71-AR-2462
195,Bordentown,Bordentown,,,,,,40.055735,-74.774195,TRUE,,NJ,,1715 Burlington-Jacksonville,271,271,,,terminal,8505,,,,,T-22-NJ-1504
196,Borger,Borger,,,,,,35.676658,-101.386586,TRUE,,TX,,Spur 119 N.,7,7,,,terminal,79007,,,,,T-75-TX-2657
197,Borger,Borger,,,,,,35.706837,-101.398793,TRUE,,TX,,Spur 119E - Philtex Plant,353,353,,,terminal,79007,,,,,T-75-TX-2691
198,Bossier City,Bossier City,,,,,,32.552391,-93.672722,TRUE,,LA,,4731 Viking Drive,450,450,,,terminal,71111,,,,,T-72-LA-2394
199,Bostco,La Porte,,,,,,29.727,-95.0539,TRUE,,TX,, ,260,260,,,terminal,77571,,,,,0
200,Boston,Boston,,,,,,42.325416,-71.059131,TRUE,,MA,,Boston Logan Intl Airport,68,68,,,terminal,2125,,,,,T-04-MA-1171
201,Bozeman P66,Bozeman,,,,,,45.699692,-111.043236,TRUE,,MT,113000,318 West Griffin Drive,7,475,,2,terminal,59715,,,,,T-81-MT-4001
202,Bozeman XOM,Bozeman,,,,,,45.699877,-111.038675,TRUE,,MT,,220 West Griffin Drive,16,16,,,terminal,59715,,,,,T-81-MT-4008
203,Baton Rouge BP Lubes,Port Allen,,,,,,30.4412,-91.2212,TRUE,,LA,, ,144,144,,,terminal,70767,,,,,0
204,Bradford,Bradford,,,,,,41.966914,-78.628365,TRUE,,PA,,77 North Kendall Ave.,233,233,,,terminal,16701,,,,,T-23-PA-1764
205,Bradshaw,Sacramento,,,,9163631666,,38.5722,-121.3364,TRUE,,CA,446200,2901 Bradshaw Road,4,134,,3,terminal,95827,in,,,,T-68-CA-4613
206,Braintree,Braintree,,,,,,42.233253,-70.974456,TRUE,,MA,,385 Quincy Ave,9,9,,,terminal,2184,,,,,T-04-MA-1155
207,Braithwaite,Braithwaite,,,,,,29.87451,-89.954305,TRUE,,LA,,2444 English Turn Road,125,125,,,terminal,70040,,,,,T-72-LA-2399
208,Breaux Bridge,Breaux Bridge,,,,,,30.2618,-91.9457,TRUE,,LA,, ,22,22,,,terminal,70517,,,,,0
209,Brecksville,Richfield,,,,,,41.277953,-81.625843,TRUE,,OH,,10439 Brecksville Road,3,3,,,terminal,44286,,,,,T-34-OH-3151
210,Bremen,Bremen,,,,,,33.71506,-85.142389,TRUE,,GA,,870 Alabama Avenue,58,58,,,terminal,30110,,,,,T-58-GA-2517
211,Brewerton,Central Square,,,,,,43.242667,-76.144842,TRUE,,NY,, ,1,1,,,terminal,13036,,,,,0
212,Bridgeport,Bridgeport,,,,,,41.172016,-73.159131,TRUE,,CT,,250 Eagles Nest Rd.,46,46,,,terminal,6607,,,,,T-06-CT-1256
213,Bridgeport,Bridgeport,,,,,,41.162573,-73.216557,TRUE,,CT,,One Eagles Nest Rd,20,20,,,terminal,6605,,,,,T-06-CT-1267
214,Bridgeport,Bridgeport,,,,,,41.166906,-73.202126,TRUE,,CT,,154 Admiral St.,101,101,,,terminal,6605,,,,,T-06-CT-1279
215,Brisbane,Brisbane,,,,4154678107,,37.695594,-122.39988,TRUE,,CA,618000,950 Tunnel Avenue,4,134,,4,terminal,94005,in,,,,T-94-CA-4700
216,Broad Brook,Broad Brook,,,,,,41.942547,-72.525229,TRUE,,CT,,152 Broad Brook Rd,468,468,,,terminal,6016,,,,,T-06-CT-1281
217,Bromley,Ft Mitchell,,,,,,39.0804,-84.5659,TRUE,,KY,, ,171,171,,,terminal,41017,,,,,0
218,Bronx,Bronx,,,,,,40.805182,-73.902428,TRUE,,NY,,1040 East 149th Street,1,1,,,terminal,10454,,,,,T-13-NY-1353
219,Bronx,Bronx,,,,,,40.839089,-73.840931,TRUE,,NY,,1400 Ferris Place,175,175,,,terminal,10461,,,,,T-13-NY-1357
220,Brooklyn KMI,Brooklyn,,,Vicent Tong,,Terminal Manager,40.728272,-73.938239,TRUE,,NY,161000,125 Apollo Street,4,470,,,terminal,11222,,,,,T-11-NY-1301
221,Brooklyn,Brooklyn,,,,,,40.733719,-73.942528,TRUE,,NY,,498 Kingsland Avenue,428,428,,,terminal,11222,,,,,T-11-NY-1302
222,Brooklyn,Brooklyn,,,,,,40.737441,-73.951971,TRUE,,NY,,25 Paidge Ave.,21,21,,,terminal,11222,,,,,T-11-NY-1304
223,Brooklyn,Brooklyn,,,,,,40.668921,-74.00254,TRUE,,NY,,722 Court Street,1,1,,,terminal,11231,,,,,T-11-NY-1308
224,Broomall,Broomall,,,,,,39.992515,-75.370747,TRUE,,PA,,Lincoln Hwy & Malin Road,5,5,,,terminal,19008,,,,,T-23-PA-1722
225,Brownsville CGO,Brownsville,,,,,,25.953647,-97.385786,TRUE,,TX,,11001 R.L. Ostos Rd.,9,9,,,terminal,78521,,,,,T-74-TX-2709
226,Brownsville TMP,Brownsville,,,,9568313531,,25.959021,-97.387943,TRUE,,TX,906000,10150 TX-48,8,8,,20,terminal,78521,,,,,T-74-TX-2717/T-74-TX-2754/T-74-TX-2755
227,Brownsville,Brownsville,,,,,,25.943923,-97.317944,TRUE,,TX,,14301 R L Ostos Road,359,359,,,terminal,78521,,,,,T-74-TX-2761
228,Brownsville,Brownsville,,,,,,25.963264,-97.550453,TRUE,,TX,,11700 Old Hwy 88,449,449,,,terminal,78520,,,,,T-76-TX-2841
229,Bryan,Bryan,,,,,,30.65271,-96.375866,TRUE,,TX,,1714 Finfeather Road,19,19,,,terminal,77801,,,,,T-74-TX-2713
230,Bucksport,Bucksport,,,,,,44.600448,-68.773241,TRUE,,ME,,Drawer CC River Road,190,190,,,terminal,4416,,,,,T-01-ME-1012
231,Buda,Buda,,,,,,30.038238,-97.674325,TRUE,,TX,,1165 East Lone Star Drive,397,397,,,terminal,78610,,,,,T-74-TX-2758
232,Buffalo,Buffalo,,,,,,42.865668,-78.830913,TRUE,,NY,,625 Elk St.,1,1,,,terminal,14210,,,,,T-16-NY-1458
233,Burley,Burley,,,,,,42.516394,-113.705502,TRUE,,ID,,421 East Highway 81,17,17,,,terminal,83318,,,,,T-82-ID-4155
234,Burley,Burley,,,,,,42.516396,-113.705535,TRUE,,ID,,425 East Hwy 81 PO Box 233,40,40,,,terminal,83318,,,,,T-82-ID-4157
235,Burlington,Burlington,,,,,,44.4558,-73.2219,TRUE,,VT,, ,20,20,,,terminal,5401,,,,,0
236,Bushton,Geneseo,,,,,,38.5218,-98.3538,TRUE,,KS,, ,84,84,,,terminal,67444,,,,,0
237,Caddo Mills,Caddo Mills,,,,,,33.031473,-96.191233,TRUE,,TX,,2738 County Rd 2168,291,291,,,terminal,75135,,,,,T-75-TX-2659
238,Cameron 7,Cameron,,,,,,29.7692,-93.341,TRUE,,LA,, ,13,13,,,terminal,70631,,,,,0
239,Cameron 8,Cameron,,,,,,29.7708,-93.4632,TRUE,,LA,, ,13,13,,,terminal,70631,,,,,0
240,Cameron East,Cameron,,,,,,29.8042,-93.3443,TRUE,,LA,, ,13,13,,,terminal,70631,,,,,0
241,Cameron West,Cameron,,,,,,29.7947,-93.3482,TRUE,,LA,, ,13,13,,,terminal,70631,,,,,0
242,Canton MRO 1,Canton,,,,,,40.772237,-81.418478,TRUE,,OH,,2419 Gambrinus Ave,3,3,,,terminal,44706,,,,,T-34-OH-3140
243,Canton BPL,Canton,,,,,,40.7895,-81.3558,TRUE,,OH,,807 Hartford Southeast,1,1,,,terminal,44707,,,,,T-34-OH-3143
244,Canton MRO 2,Canton,,,,,,40.759808,-81.350034,TRUE,,OH,,2408 Gamfrinus Rd SW,3,3,,,terminal,44707,,,,,T-34-OH-3177
245,Canton,Canton,,,,,,40.12504,-91.62516,TRUE,,MO,,Fourth & Grant,312,312,,,terminal,63435,,,,,T-43-MO-3703
246,Cantril,Cantril,,,,,,40.6458,-92.0912,TRUE,,IA,, ,24,24,,,terminal,52542,,,,,0
247,Cape Canaveral TMP,Cape Canaveral,,,,3217833393,,28.404586,-80.603152,TRUE,,FL,724000,8952 North Atlantic Avenue,8,8,,4,terminal,32920,,,,,T-59-FL-2138
248,Cape Canaveral,Cape Canaveral,,,,,,28.4187,-80.6199,TRUE,,FL,,555 Hwy 401,250,250,,,terminal,32920,,,,,T-59-FL-2680
249,Cape Girardeau TMP,Cape Girardeau,,,,5733356688,,37.285798,-89.528045,TRUE,,MO,140000,1400 South Giboney,8,8,,2,terminal,63703,,,,,T-43-MO-3704
250,Cape Girardeau,Scott City,,,,,,37.2202,-89.5144,TRUE,,MO,, ,23,23,,,terminal,63780,,,,,0
251,Cargo Newburgh,New Windsor,,,,,,41.473506,-74.012907,TRUE,,NY,,1096 River Rd.,20,20,,,terminal,12553,,,,,T-14-NY-1411
252,Carrington,Carrington,,,,,,47.4571,-98.9253,TRUE,,ND,, ,4,4,,,terminal,58421,,,,,0
253,Carrollton,Carrollton,,,,,,39.405818,-93.425127,TRUE,,MO,,"RR4, Box 48",40,40,,,terminal,64633,,,,,T-43-MO-3728
254,Carson,Long Beach,,,,,,33.802691,-118.231339,TRUE,,CA,4692601,2000 East Sepulveda Blvd.,4,4,,,terminal,90810,both,none,both,both,T-33-CA-4751
255,Carson,Harbor City,,,,,,33.786594,-118.298662,TRUE,,CA,,2149 E. Sepulreda Blvd.,17,17,,,terminal,90710,,,,,T-33-CA-4769
256,Carson Sopus Rack,Long Beach,,,,,,33.8395,-118.2367,TRUE,,CA,, ,18,18,,,terminal,90810,,,,,0
257,Carson,Long Beach,,,,,,33.8055,-118.226,TRUE,,CA,, ,327,327,,,terminal,90810,,,,,0
258,Carteret KMI 1,Carteret,,7325415856,Jeff Essig,7325415161,Terminal Manager,40.588932,-74.226498,TRUE,,NJ,7833080,760 Roosevelt Avenue,4,470,,,terminal,7008,,,,,T-22-NJ-1506
259,Carteret KMI 2,Carteret,,7325415856,Jeff Essig,7325415161,Terminal Manager,40.588995,-74.211864,TRUE,,NJ,7833080,78 Lafayette Street,4,470,,,terminal,7008,,,,,T-22-NJ-1507
260,Carteret SPR,0,,,,,,40.5895,-71.2147,TRUE,,0,, ,64,64,,,terminal,0,,,,,0
261,Carthage,Jasper,,(417) 394-3140,,(417) 394-2700,,37.3136,-94.3043,TRUE,,MO,100000,18195 Country Road 138 ,2,477,,,terminal,64755,in,,out,,T-43-MO-3707
262,Casper,Casper,,,,,,42.863809,-106.40611,TRUE,,WY,,5700 E Hwy 20-26,360,360,,,terminal,82604,,,,,T-83-WY-4052
263,Casper,Casper,,,,,,42.863809,-106.40611,TRUE,,WY,,5700 East Highway 20-26,40,40,,,terminal,82604,,,,,T-83-WY-4058
264,Casper,Casper,,,,,,42.854914,-106.249593,TRUE,,WY,281000,5090 East Lathrop Road,7,475,,2,terminal,82609,,,,,T-83-WY-4061
265,Casper,Gillette,,,,,,44.0206,-105.4643,TRUE,,WY,, ,151,151,,,terminal,82718,,,,,0
266,Catlettsburg,Catlettsburg,,,,,,38.335026,-82.588147,TRUE,,KY,,Old St Rt 23,3,3,,,terminal,41129,,,,,T-61-KY-3262
267,Catlettsburg,Catlettsburg,,,,,,38.383082,-82.602263,TRUE,,KY,,8023 Crider Dr.,283,283,,,terminal,41129,,,,,T-62-KY-3285
268,Catoosa Ac,Inola,,,,,,36.172,-95.6213,TRUE,,OK,, ,29,29,,,terminal,74036,,,,,0
269,Catoosa Asphalt,Catoosa,ivan.tramel@nustarenergy.com,,Ivan Tramel,9182665926,Terminal Contact,36.2435,-95.7372,TRUE,,OK,0,5575 East Channel Road,6,6,,4,terminal,74015,none,both,both,in,0
270,Catoosa Em Plant,Catoosa,,,,,,36.2414,-95.7439,TRUE,,OK,, ,11,11,,,terminal,74015,,,,,0
271,Catoosa Port 33,Catoosa,,,,,,36.2414,-95.7362,TRUE,,OK,, ,29,29,,,terminal,74015,,,,,0
272,Cedar City,Cedar City,,,,,,37.75937,-113.247694,TRUE,,UT,,4410 N Wecco Rd,119,119,,,terminal,84721,,,,,T-87-UT-4207
273,Cedar Rapids,North Liberty,,,,,,41.784398,-91.634462,TRUE,,IA,,2092 Hwy. 965 NE,1,1,,,terminal,52317,,,,,T-42-IA-3468
274,Center,Center,,,,,,31.800193,-94.184987,TRUE,,TX,,377 State Highway 87 South,5,5,,,terminal,75935,,,,,T-75-TX-2678
275,Chalmette,Chalmette,,,,,,29.949442,-89.960338,TRUE,,LA,,1700 Paris Rd Gate 50,325,325,,,terminal,70043,,,,,T-72-LA-2360
276,Champaign,Champaign,,,,,,40.11153,-88.314844,TRUE,,IL,,511 S. Staley Road,3,3,,,terminal,61822,,,,,T-37-IL-3358
277,Channelview,Channelview,,,,,,29.767682,-95.102866,TRUE,,TX,,1015 Lakeside,295,295,,,terminal,77530,,,,,T-76-TX-2826
278,Channelview,Channelview,,,,,,29.7897,-95.086,TRUE,,TX,,17310 Market St,192,192,,,terminal,77530,,,,,0
279,Channelview,Channelview,,,,,,29.7758,-95.1144,TRUE,,TX,, ,400,400,,,terminal,77530,,,,,0
280,Charleston,Charleston,,,,,,38.3508,-81.645037,TRUE,,WV,,Standard St & MacCorkle Ave,3,3,,,terminal,25314,,,,,T-55-WV-3181
281,Charleston,North Charleston,,,,,,32.889186,-79.972696,TRUE,,SC,,5150 Virginia Ave.,1,1,,,terminal,29405,,,,,T-57-SC-2064
282,Charleston,North Charleston,,,,,,32.8273,-79.9463,TRUE,,SC,, ,12,12,,,terminal,29405,,,,,0
283,Charleston,North Charleston,,,,,,32.8816,-79.9739,TRUE,,SC,, ,435,435,,,terminal,29405,,,,,0
284,Charlotte,Charlotte,,,,,,35.27996,-80.934805,TRUE,,NC,,7600 Mount Holly Road,9,9,,,terminal,28214,,,,,T-56-NC-2001
285,Charlotte,Charlotte,,,,,,35.206798,-80.601694,TRUE,,NC,,8035 Mt. Holly Rd.,3,3,,,terminal,28227,,,,,T-56-NC-2002
286,Charlotte,Charlotte,,,,,,35.172326,-80.872262,TRUE,,NC,,7720 Mr. Holly Road,120,120,,,terminal,28209,,,,,T-56-NC-2003
287,Charlotte,Charlotte,,,,,,35.279515,-80.938394,TRUE,,NC,,6851 Freedom Dr.,10,10,,,terminal,28214,,,,,T-56-NC-2005
288,Charlotte,Charlotte,,,,,,35.282464,-80.937677,TRUE,,NC,,410 Tom Sadler Rd.,10,10,,,terminal,28214,,,,,T-56-NC-2007
289,Charlotte,Charlotte,,,,,,35.278909,-80.9351,TRUE,,NC,,7401 Old Mount Holly Road,3,3,,,terminal,28214,,,,,T-56-NC-2008
290,Charlotte,Charlotte,,,,7043998378,,35.278081,-80.934063,TRUE,,NC,121000,7615 Old Mount Holly Road,8,8,,5,terminal,28214,,,,,T-56-NC-2023
291,Charlotte,Charlotte,,,,,,35.228492,-80.947814,TRUE,,NC,,6502 Old Dowd Rd.,15,15,,,terminal,28208,,,,,T-56-NC-2032
292,Charlotte,Charlotte,,,,,,35.2795,-80.9352,TRUE,,NC,, ,81,81,,,terminal,28214,,,,,0
293,Charlotte KMI 1,Charlotte,,,,,,35.284003,-80.938544,TRUE,,NC,,502 Tom Sadler Road,4,469,,,terminal,28214,in,,,,T-56-NC-2004
294,Charlotte MPL 1,Charlotte,,7043992926,,7043998457,,35.280368,-80.924055,TRUE,,NC,,7145 Old Mount Holly Road,2,2,,,terminal,28130,,,,,T-56-NC-2006
295,Charlotte KMI 2,Charlotte,,,,,,35.278829,-80.938448,TRUE,,NC,,6801 Freedom Drive,4,469,,,terminal,28214,in,,,,T-56-NC-2000
296,Charlotte MPL 2,Charlotte,,7043997990,,7043996331,,35.2809,-80.9399,TRUE,,NC,,7924 Mt. Holly Rd.,2,2,,,terminal,28214,,,,,T-56-NC-2024
297,Charlotte KMI 3,Charlotte,,,,,,35.281621,-80.921086,TRUE,,NC,,7325 Old Mount Holly Road,4,469,,,terminal,28214,in,,,,T-56-NC-2026
298,Chattahoochee,Atlanta,,,,,,33.804043,-84.485535,TRUE,,GA,,3132 Parrott Avenue N W,4,470,,,terminal,30318,,,,,T-58-GA-2511
299,Chattanooga CGO,Chattanooga,,,,,,35.067792,-85.193769,TRUE,,TN,,4233 Jersey Pike,9,9,,,terminal,37416,,,,,T-62-TN-2202
300,Chattanooga KMI,Chattanooga,,,,,,35.072244,-85.195822,TRUE,,TN,222000,4716 Bonny Oaks Drive,4,469,,,terminal,37416,in,,,,T-62-TN-2201
301,Chattanooga,Chattanooga,,,,,,35.06543,-85.204626,TRUE,,TN,,4211 Cromwell Rd.,323,323,,,terminal,37421,,,,,T-62-TN-2207
302,Chattanooga,Chattanooga,,,,,,35.0668,-85.3302,TRUE,,TN,, ,185,185,,,terminal,37405,,,,,0
303,Chattanooga MPL 1,Chattanooga,,4238925304,,4238925313,,35.068991,-85.193343,TRUE,,TN,,4235 Jersey Pike,2,2,,,terminal,37416,,,,,T-62-TN-2200
304,Chattanooga MPL 2,Chattanooga,,4238949216,,4238925717,,35.070439,-85.190097,TRUE,,TN,,4326 Jersey Pike,2,2,,,terminal,37416,,,,,T-62-TN-2208
305,Cheboygan,Cheboygan,,,,,,45.647929,-84.469445,TRUE,,MI,,311 Coast Guard Drive,19,19,,,terminal,49721,,,,,T-38-MI-3001
306,Chelsea,Chelsea,,,,,,42.386865,-71.043619,TRUE,,MA,,11 Broadway,20,20,,,terminal,2150,,,,,T-04-MA-1152
307,Chelsea,Chelsea,,,,,,42.396976,-71.020759,TRUE,,MA,,281 Eastern Ave.,44,44,,,terminal,2150,,,,,T-04-MA-1153
308,Chelsea,Aston,,,,,,39.8493,-75.426,TRUE,,PA,, ,133,133,,,terminal,19014,,,,,0
309,Cheraw,Cheraw,,,,,,34.722,-80.0121,TRUE,,SC,, ,53,53,,,terminal,29520,,,,,0
310,Chesapeake CGO,Chesapeake,,,,,,36.786596,-76.296543,TRUE,,VA,,110 Freeman Street,9,9,,,terminal,23324,,,,,T-54-VA-1652
311,Chesapeake BPL,Chesapeake,,,,,,36.783694,-76.299559,TRUE,,VA,,4030 Buell Street,1,1,,,terminal,23324,,,,,T-54-VA-1650
312,Chesapeake,Chesapeake,,,,,,36.804783,-76.285424,TRUE,,VA,,428 Barnes Road,27,27,,,terminal,23324,,,,,T-54-VA-1651
313,Chesapeake KMI 1,Chesapeake,,7575436798,Bob Wolfe,7575432031,Terminal Manager,36.793153,-76.287332,TRUE,,VA,1400000,502 Hill Street,4,474,,,terminal,23324,,both,both,both,T-54-VA-1653
314,Chesapeake KMI 2,Chesapeake,,,,,,36.785431,-76.298037,TRUE,,VA,354000,4115 Buell Street,4,469,,,terminal,23324,in,,,,T-54-VA-1654
315,Chesapeake IMTT,Chesapeake,,,,,,36.710949,-76.339913,TRUE,,VA,,2801 S. Military Hwy.,35,35,,,terminal,23323,,,,,T-54-VA-1667
316,Chesapeake,Chesapeake,,,,,,36.821035,-76.281896,TRUE,,VA,,801 Butt Street,21,21,,,terminal,23324,,,,,T-54-VA-1673
317,Chesapeake,Chesapeake,,,,,,36.710949,-76.339913,TRUE,,VA,,2901 South Military Highway,179,179,,,terminal,23323,,,,,T-54-VA-1700
318,Chesapeake,Chesapeake,,,,,,36.7731,-76.3147,TRUE,,VA,, ,352,352,,,terminal,23323,,,,,0
319,Cheyenne,Cheyenne,,,,3076344202,,41.107199,-104.833211,TRUE,,WY,,1112 Parsley Boulevard,2,2,,,terminal,82007,,,,,T-83-WY-4053
320,Cheyenne,Cheyenne,,,,,,41.125248,-104.797244,TRUE,,WY,,300 Morrie Ave,30,30,,,terminal,82007,,,,,T-83-WY-4055
321,Cheyenne,Cheyenne,,,,,,41.1403,-104.8202,TRUE,,WY,, ,75,75,,,terminal,82001,,,,,0
322,Chicago,Berwyn,,,,,,41.805829,-87.797888,TRUE,,IL,,4801 South Harlem,59,59,,,terminal,60402,,,,,T-36-IL-3312
323,Chicago MPL,Franklin Park,,8474555120,,8474551446,,41.93921,-87.890961,TRUE,,IL,,10601 Franklin Avenue,2,2,,,terminal,60131,,,,,T-36-IL-3320
324,Chicago,Chicago,,,,,,41.757564,-87.594225,TRUE,,IL,,Chicago O'Hare Int'l Airport,15,15,,,terminal,60619,,,,,T-36-IL-3325
325,Chicago,Cicero,,,,,,41.8186,-87.744,TRUE,,IL,, ,76,76,,,terminal,60804,,,,,0
326,Chickasaw,Mobile,,,,,,30.7707,-88.0604,TRUE,,AL,, ,21,21,,,terminal,36611,,,,,0
327,Chickasaw,Mobile,,,,,,30.768,-88.0597,TRUE,,AL,, ,27,27,,,terminal,36611,,,,,0
328,Chico,Chico,,,,5303426140,,39.707906,-121.812468,TRUE,,CA,557405,2570 Hegan Lane,4,134,,4,terminal,95927,in,,,,T-68-CA-4600
329,Chippewa Falls,Chippewa Falls,,,,,,44.90077,-91.413006,TRUE,,WI,,2331 N Prairie View Rd,51,51,,,terminal,54729,,,,,T-39-WI-3064
330,Chippewa Falls,Chippewa Falls,,,,,,44.895514,-91.415933,TRUE,,WI,,3689 N. Prairieview Road,19,19,,,terminal,54729,,,,,T-39-WI-3082
331,Choctaw,Plaquemine,,,,,,30.3247,-91.2682,TRUE,,LA,, ,290,290,,,terminal,70764,,,,,0
332,Cicero,Chicago,,,,,,41.8233,-87.7403,TRUE,,IL,,3907 S Cicero Ave,16,16,,,terminal,60804,,,,,0
333,Cincinnati,Cincinnati,,,,,,39.075489,-84.607395,TRUE,,OH,,4015 River Road,3,3,,,terminal,45204,,,,,T-31-OH-3100
334,Cincinnati,Cincinnati,,,,,,39.089903,-84.643762,TRUE,,OH,,5150 River Road,1,1,,,terminal,45233,,,,,T-31-OH-3128
335,Cincinnati North,Cincinnati,,,Aricka Peters,,Terminal Manager,39.169476,-84.482409,TRUE,,OH,141421,930 Tennessee Avenue,4,470,,,terminal,45229,,,,,T-31-OH-3104
336,Clay Center,Clay Center,,,,,,39.496,-97.1277,TRUE,,KS,, ,24,24,,,terminal,67432,,,,,0
337,Clayton,Clayton,,,,,,39.600923,-86.520134,TRUE,,IN,,491 S. County Road 800 E.,196,196,,,terminal,46118,,,,,T-35-IN-3243
338,Clear Lake,Clear Lake,,,,,,43.1387,-93.3508,TRUE,,IA,, ,39,39,,,terminal,50428,,,,,0
339,Clemens,Borger,,,,,,35.6851,-101.3752,TRUE,,TX,, ,351,351,,,terminal,79007,,,,,0
340,Cleveland,Cleveland,,,,,,41.399598,-81.841803,TRUE,,OH,,5912 Cargo Rd.,15,15,,,terminal,44135,,,,,T-31-OH-3109
341,Cleveland,Cleveland,,,,,,41.464592,-81.666886,TRUE,,OH,,3200 Independence Road,5,5,,,terminal,44105,,,,,T-34-OH-3160
342,Cleveland,Cleveland,,,,,,41.427912,-81.817199,TRUE,,OH,,5241 Secondary Road,52,52,,,terminal,44135,,,,,T-34-OH-3175
343,Cleveland - Asphalt,Cleveland,,,,,,41.488823,-81.678656,TRUE,,OH,, ,3,3,,,terminal,44115,,,,,0
344,Cleveland ARC,Cleveland,,,,,,41.486122,-81.681984,TRUE,,OH,,250 Mahoning Ave,21,21,,,terminal,44113,,,,,T-34-OH-3150
345,Cleveland BPL,Cleveland,,,,,,41.487958,-81.684345,TRUE,,OH,,2201 West Third Street,1,1,,,terminal,44113,,,,,T-34-OH-3157
346,Clinton,Moon,,,,,,40.497116,-80.237884,TRUE,,PA,,550 Tower Rd,15,15,,,terminal,15108,,,,,T-23-PA-1766
347,Coffeyville,Coffeyville,,,,,,37.039295,-95.605421,TRUE,,KS,,400 N. Linden Street,393,393,,,terminal,67337,,,,,T-48-KS-3651
348,Cold Bay,Anchorage,,,,,,61.1399,-149.8326,TRUE,,AK,, ,142,142,,,terminal,99507,,,,,0
349,College Point,College Point,,,,,,40.778503,-73.848698,TRUE,,NY,,119-02 23rd Ave.,280,280,,,terminal,11356,,,,,T-11-NY-1333
350,Collins,Collins,,,,,,31.608157,-89.534273,TRUE,,MS,,Old Highway 49 South,12,12,,,terminal,39428,,,,,T-64-MS-2401
351,Collins,Collins,,,,,,31.623899,-89.537754,TRUE,,MS,253000,31 Kola Road,4,469,,,terminal,39428,in,,,,T-64-MS-2402
352,Collins,Collins,,,,,,31.652811,-89.578002,TRUE,,MS,,49 So. & Kola Rd.,10,10,,,terminal,39428,,,,,T-64-MS-2404
353,Collins,Collins,,,,6017656878,,31.642455,-89.557311,TRUE,,MS,200000,1610 South First Avenue,8,8,,4,terminal,39428,,,,,T-64-MS-2405
354,Collins,Collins,,,,,,31.6442,-89.5222,TRUE,,MS,, ,396,396,,,terminal,39428,,,,,0
355,Collinsville,Collinsville,,,,,,36.363435,-95.819656,TRUE,,OK,,1700 South Union,235,235,,,terminal,74021,,,,,T-73-OK-2621
356,Colorado Springs,Colorado Springs,danny.mccrory@nustarenergy.com,7193910945,Danny McCrory,7193910942,Terminal Contact,38.780795,-104.677799,TRUE,,CO,324000,7810 Drennan Road,6,6,,4,terminal,80925,both,none,both,none,T-84-CO-4108
357,Colton,Bloomington,,,,9098772141,,34.058364,-117.369353,TRUE,,CA,1412637,2359 South Riverside Avenue,4,134,,5,terminal,92316,in,,,,T-33-CA-4757
358,Colton,Rialto,,,,,,34.062526,-117.366362,TRUE,,CA,211000,271 E Slover Avenue,7,7,,5,terminal,92316,,none,,none,T-33-CA-4760
359,Colton,Colton,,,,,,34.024,-117.363,TRUE,,CA,, ,18,18,,,terminal,92324,,,,,0
360,Columbia,Columbia,,(573) 449-1192,,(573) 443-1619,,38.8862,-92.2655,TRUE,,MO,300000,5531 Highway 63 South,2,477,,,terminal,65201,in,,out,,T-43-MO-3708
361,Columbus,Columbus,,,,,,39.968292,-83.103146,TRUE,,OH,,3866 Fisher Rd,5,5,,,terminal,43204,,,,,T-31-OH-3111
362,Columbus,Columbus,,,,,,39.966526,-83.096602,TRUE,,OH,,3651 Fisher Rd.,1,1,,,terminal,43228,,,,,T-31-OH-3114
363,Columbus,Columbus,,,,,,39.953933,-83.091769,TRUE,,OH,,3499 West Broad Street,5,5,,,terminal,43204,,,,,T-31-OH-3116
364,Columbus,Columbus,,,,,,39.966704,-83.111272,TRUE,,OH,,620 Phillipi Road,372,372,,,terminal,43228,,,,,T-31-OH-3129
365,Columbus,Richland,bruce.myers@nustarenergy.com,(402) 564-8889,Bruce Myers,(402) 564-3332,Terminal Contact,41.4374,-97.2446,TRUE,,NE,171000,147 Road D ,6,476,,2,terminal,68601,in,,both,,T-47-NE-3600
366,Columbus,Columbus,,,,,,32.523182,-84.911935,TRUE,,GA,102000,5131 Miller Road,4,469,,,terminal,31909,in,,,,T-58-GA-2520
367,Columbus,Columbus,,,,,,32.523327,-84.914254,TRUE,,GA,,5030 Miller Road,3,3,,,terminal,31909,,,,,T-58-GA-2523
368,Columbus,Columbus,,,,,,40.1073,-82.9977,TRUE,,OH,, ,76,76,,,terminal,43229,,,,,0
369,Columbus 1,Columbus,,,,,,32.523139,-84.911307,TRUE,,GA,,5225 Miller Road,70,70,,,terminal,31909,,,,,T-58-GA-2522
370,Columbus 2,Columbus,,,,,,32.448164,-84.981189,TRUE,,GA,,800 Lumpkin Blvd.,70,70,,,terminal,31901,,,,,T-58-GA-2524
371,Columbus East,Columbus,,,,,,39.96734,-83.102849,TRUE,,OH,,3855 Fisher Road,3,3,,,terminal,43204,,,,,T-31-OH-3101
372,Columbus South,Columbus,,,,,,39.959689,-82.966926,TRUE,,OH,,303 North Wilson Road,1,1,,,terminal,43205,,,,,T-31-OH-3105
373,Columbus West,Columbus,,,,,,39.968746,-83.109561,TRUE,,OH,,4125 Fisher Rd,3,3,,,terminal,43204,,,,,T-31-OH-3112
374,Columbus-East,Columbus,,,,,,39.954,-83.0939,TRUE,,OH,, ,5,5,,,terminal,43228,,,,,0
375,Columbus-West,Columbus,,,,,,39.9679,-83.1032,TRUE,,OH,, ,5,5,,,terminal,43204,,,,,0
376,Commerce,Los Angeles,,,,,,33.997892,-118.155468,TRUE,,CA,,6300 E Sheila St,33,33,,,terminal,90040,,,,,T-33-CA-4748
377,Commerce City,Commerce City,,,,,,39.803537,-104.943324,TRUE,,CO,,5800 Brighton Boulevard,127,127,,,terminal,80022,,,,,T-84-CO-4101
378,Commerce City,Commerce City,,,,,,39.798599,-104.951443,TRUE,,CO,,5575 Brighton Boulevard,270,270,,,terminal,80022,,,,,T-84-CO-4102
379,Concordia,Delphos,tracy.wallick@nustarenergy.com,(785) 243-7186,Tracy Wallick,(785) 243-2771,Terminal Contact,39.364,-97.6284,TRUE,,KS,79000,1612 Deer Road - US HWY 24 ,6,476,,2,terminal,67436,in,none,both,none,T-48-KS-3652
380,Convent,Weyanoke,,,,,,30.9742,-91.4299,TRUE,,LA,, ,10,10,,,terminal,70787,,,,,0
381,Conway - Oneok Storage,McPherson,,,,,,38.3737,-97.8034,TRUE,,KS,, ,84,84,,,terminal,67460,,,,,0
382,Conway Frac,Mcpherson,,,,,,38.3789,-97.8324,TRUE,,KS,, ,369,369,,,terminal,67460,,,,,0
383,Coraopolis,Coraopolis,,,,,,40.526492,-80.209544,TRUE,,PA,,520 University Blvd,28,28,,,terminal,15108,,,,,T-25-PA-1759
384,Coraopolis,Coraopolis,,,,,,40.526492,-80.209544,TRUE,,PA,,520 University Blvd,79,79,,,terminal,15108,,,,,T-25-PA-1760
385,Coraopolis,Coraopolis,,,,,,40.526492,-80.209544,TRUE,,PA,,520 University Blvd,28,28,,,terminal,15108,,,,,T-25-PA-1780
386,Coraopolis,Coraopolis,,,,,,40.5256,-80.1726,TRUE,,PA,, ,37,37,,,terminal,15108,,,,,0
387,Cordova,Cordova,,,,,,60.536166,-145.75335,TRUE,,AK,,100 Ocean Dock Rd.,459,459,,,terminal,99574,,,,,T-91-AK-4523
388,Cordova,Cordova,,,,,,60.5414,-145.7494,TRUE,,AK,, ,254,254,,,terminal,99574,,,,,0
389,Corp Christi Plant,Viola,,,,,,27.8175,-97.4968,TRUE,,TX,, ,11,11,,,terminal,78409,,,,,0
390,Corpus Christi CGO,Corpus Christi,,,,,,27.805747,-97.431258,TRUE,,TX,,1308 Oak Park Street,9,9,,,terminal,78407,,,,,T-74-TX-2716
391,Corpus Christi VLO,Corpus Christi,,,,,,27.805592,-97.44731,TRUE,,TX,,5900 Up River Rd.,145,145,,,terminal,78407,,,,,T-74-TX-2714
392,Corpus Christi FHR,Corpus Christi,,,,361-241-4811,,27.818007,-97.520212,TRUE,,TX,,2825 Suntide Road,14,14,,,terminal,78409,,,,,T-74-TX-2721
393,Corpus Christi BPL,Viola,,,,,,27.8279,-97.4995,TRUE,,TX,,7002 Marvin L Berry Rd,219,219,,,terminal,78409,,,,,T-76-TX-2838
394,Corpus Christi BPL,Corpus Christi,,,,,,27.80936,-97.502574,TRUE,,TX,,1501 Southern Minerals Rd,223,223,,,terminal,78409,,,,,T-76-TX-2844
395,Corpus Christi,Corpus Christi,,,,,,27.8199,-97.3948,TRUE,,TX,, ,55,55,,,terminal,78402,,,,,0
396,Corpus Christi North Beach,Corpus Christi,mike.vest@nustarenergy.com,,Mike Vest,3616967542,Terminal Contact,27.8181,-97.4002,TRUE,,TX,327000, _2829 Texaco Road,6,6,,0,terminal,78407,in,none,none,out,0
397,Corson,Corson,,,,,,43.6119,-96.5788,TRUE,,SD,, ,75,75,,,terminal,57005,,,,,0
398,Cortlandt Manor,Cortlandt Manor,,,,,,41.295697,-73.945477,TRUE,,NY,,26 Bayview Drive,85,85,,,terminal,10567,,,,,T-13-NY-1358
399,Coshocton,Coshocton,,,,,,40.1964,-81.8446,TRUE,,OH,, ,23,23,,,terminal,43812,,,,,0
400,Cotton Valley,Cotton Valley,,,,,,32.816214,-93.42266,TRUE,,LA,,U. S. Hwy 371 South,110,110,,,terminal,71018,,,,,T-72-LA-2388
401,Council Bluffs BPL,Council Bluffs,kboslett@buckeye.com,,Scott Newhard,(712) 366-9461,Terminal Contact,41.214,-95.832,TRUE,,IA,544000,829 Tank Farm Road,1,1,,,terminal,51501,in,,out,,T-42-IA-3454
402,Council Bluffs CHS,Council Bluffs,,,,0,,41.2168,-95.8344,TRUE,,IA,,825 Tank Farm Road,51,51,,,terminal,51501,,,,,T-42-IA-3455
403,Covent,Covent,,,,,,30.04362,-90.6976,TRUE,,LA,,Louisiana Street,10,10,,,terminal,70723,,,,,T-72-LA-2361
404,Covington,Latonia,,,,,,39.0527,-84.4997,TRUE,,KY,, ,3,3,,,terminal,41015,,,,,0
405,Craig,Craig,,,,,,55.477182,-133.151296,TRUE,,AK,,300 Front St.,31,31,,,terminal,99921,,,,,T-91-AK-4512
406,Crockett,Crockett,,,,,,38.050866,-122.243716,TRUE,,CA,,90 San Pablo Ave,94,94,,,terminal,94525,,,,,T-68-CA-4605
407,Crookston,Crookston,,,,,,47.7932,-96.6112,TRUE,,MN,, ,139,139,,,terminal,56716,,,,,0
408,Curtis Bay,Curtis Bay,,,,,,39.226774,-76.588021,TRUE,,MD,,801 East Ordance Rd,4,470,,,terminal,21226,,,,,T-52-MD-1551
409,Curtis Bay,Curtis Bay,,,,,,39.228747,-76.571609,TRUE,,MD,,2155 Northbridge Ave,5,5,,,terminal,21226,,,,,T-52-MD-1552
410,Curtis Bay,Curtis Bay,,,,,,39.22935,-76.568995,TRUE,,MD,,2201 Southport Ave.,9,9,,,terminal,21226,,,,,T-52-MD-1562
411,Custer,Fay,,,,,,35.6966,-98.6636,TRUE,,OK,, ,442,442,,,terminal,73646,,,,,0
412,Cuyahoga,Cleveland,,,,,,41.427024,-81.657545,TRUE,,OH,,4850 E 49th Street,1,1,,,terminal,44125,,,,,T-34-OH-3144
413,Dallas,Dallas,,2146881789,,2146881770,,32.778746,-96.888268,TRUE,,TX,,4200 Singleton Boulevard,2,2,,,terminal,75212,,,,,T-75-TX-2661
414,Dallas,Dallas,,,,,,32.778757,-96.883986,TRUE,,TX,,3900 Singleton Blvd.,10,10,,,terminal,75212,,,,,T-75-TX-2662
415,Dallas,Dallas,,,,,,32.851874,-96.858654,TRUE,,TX,,Love Field,15,15,,,terminal,75235,,,,,T-75-TX-2663
416,Dallas,Dallas,,,,,,32.905216,-97.06652,TRUE,,TX,,2001 W. Airfield Dr. @ 20th St,426,426,,,terminal,75261,,,,,T-75-TX-2673
417,Davenport,Davenport,,,,,,41.4683,-90.6769,TRUE,,IA,, ,406,406,,,terminal,52804,,,,,0
418,Davenport Asphalt,Davenport,,,,563-324-3766,,41.4635,-90.6813,TRUE,,IA,,501 East Front Street,14,14,,,terminal,52804,,,,,0
419,Dayton,Dayton,,,James Malloy,,Terminal Manager,39.785597,-84.161213,TRUE,,OH,274000,621 Brandt Pike,4,470,,,terminal,45404,in,,,,T-31-OH-3106
420,Dayton,Dayton,,,,,,39.787955,-84.159097,TRUE,,OH,,801 Brandt Pike,1,1,,,terminal,45404,,,,,T-31-OH-3115
421,Dayton,Dayton,,,,,,39.786841,-84.164655,TRUE,,OH,,1708 Farr Drive,5,5,,,terminal,45404,,,,,T-31-OH-3117
422,Dayton,Dayton,,,,,,39.789084,-84.164223,TRUE,,OH,,1800 Farr Drive,9,9,,,terminal,45404,,,,,T-31-OH-3121
423,Dearborn,Dearborn,,,,,,42.294765,-83.14515,TRUE,,MI,,1071 Miller Rd.,300,300,,,terminal,48120,,,,,T-38-MI-3003
424,Dearborn,Taylor,,,,,,42.244799,-83.304526,TRUE,,MI,,8503 South Inkster Rd.,1,1,,,terminal,48180,,,,,T-38-MI-3006
425,Decatur,Forsyth,,,,,,39.935602,-88.951837,TRUE,,IL,,266 E Shafer Drive,1,1,,,terminal,62535,,,,,T-37-IL-3365
426,Deer Park,Deer Park,,,,,,29.687972,-95.116749,TRUE,,TX,,1943 Independence Parkway,147,147,,,terminal,77536,,,,,T-76-TX-2815
427,Deer Park,Deer Park,,,,,,29.687972,-95.116749,TRUE,,TX,,2759 Battleground Rd.,78,78,,,terminal,77536,,,,,T-76-TX-2820
428,Deer Park Rail Tanks,Pasadena,,,,,,29.7205,-95.1401,TRUE,,TX,, ,18,18,,,terminal,77503,,,,,0
429,Delaware City,Delaware City,,,,,,39.581603,-75.61543,TRUE,,DE,,4550 Wrangle Hill Road,354,354,,,terminal,19706,,,,,T-51-DE-1600
430,Delmita,Rio Grande City,,,,,,26.6563,-98.4814,TRUE,,TX,, ,26,26,,,terminal,78582,,,,,0
431,Delmont,Delmont,,,,,,40.425266,-79.575865,TRUE,,PA,,1734 Old Route 66,5,5,,,terminal,15626,,,,,T-25-PA-1761
432,Delmont,Greensburg,,,,,,40.3981,-79.5661,TRUE,,PA,,6433 Route 22,44,44,,,terminal,15601,,,,,T-25-PA-1778
433,Demopolis,Demopolis,,,,,,32.5175,-87.8364,TRUE,,AL,, ,53,53,,,terminal,36732,,,,,0
434,Denton,Denton,,,,,,35.6134,-80.1778,TRUE,,NC,, ,154,154,,,terminal,27239,,,,,0
435,Denver,Commerce City,danny.mccrory@nustarenergy.com,3032989013,Danny McCrory,3032979212,Terminal Contact,39.798567,-104.944006,TRUE,,CO,105000,3601 East 56th Street,6,6,,2,terminal,80022,in,none,out,none,T-84-CO-4103
436,Denver,Commerce City,,,,,,39.7975,-104.939329,TRUE,,CO,310000,3960 East 56th Avenue,7,7,,5,terminal,80022,,,,,T-84-CO-4104
437,Denver,Henderson,,,,,,39.871265,-104.887789,TRUE,,CO,,8581 East 96th Ave,40,40,,,terminal,80640,,,,,T-84-CO-4109
438,Denver,Denver,,,,,,39.897669,-104.67525,TRUE,,CO,,11110 Queensburg St.,15,15,,,terminal,80249,,,,,T-84-CO-4111
439,Denver,Denver,,,,,,39.790885,-105.0039,TRUE,,CO,,1400 West 52nd Ave,25,25,,,terminal,80221,,,,,T-84-CO-4113
440,Denver-C,Commerce City,,,,,,39.8039,-104.9363,TRUE,,CO,, ,29,29,,,terminal,80022,,,,,0
441,Des Moines,Des Moines,,,,,,41.5599,-93.4911,TRUE,,IA,, ,39,39,,,terminal,50327,,,,,0
442,Des Moines BPL,Urbandale,dlmontoya@buckeye.com,,,(515) 226-4017,,41.604275,-93.735715,TRUE,,IA,380800,1501 Northwest 86th Street,1,1,,,terminal,50322,in,,out,,T-42-IA-3456
443,Des Moines MPL,Des Moines,steve.seward@magellanlp.com,(515) 261-6691,Steve Seward,(515) 261-6698,Terminal Contact,41.5595,-93.5282,TRUE,,IA,2100000,2503 Southeast 43rd Street,2,477,,,terminal,50327,in,,both,,T-42-IA-3457
444,Des Plaines,Arlington Heights,,,,,,42.025132,-87.954047,TRUE,,IL,,2312 Terminal Drive,16,16,,,terminal,60005,,,,,T-36-IL-3311
445,Des Plaines Terminal,Des Plaines,,,,,,42.0316,-87.8838,TRUE,,IL,, ,18,18,,,terminal,60016,,,,,0
446,Detroit,Detroit,,,,,,42.283131,-83.14126,TRUE,,MI,,700 S. Deacon Street,1,1,,,terminal,48217,,,,,T-38-MI-3025
447,Detroit,Detroit,,,,,,42.293478,-83.154535,TRUE,,MI,,500 South Dix Avenue,5,5,,,terminal,48217,,,,,T-38-MI-3030
448,Detroit,Detroit,,,,,,42.304631,-83.090098,TRUE,,MI,,5431 W Jefferson,149,149,,,terminal,48209,,,,,T-38-MI-3047
449,Detroit Asphalt,Detroit,,,,,,42.278682,-83.153416,TRUE,,MI,,12700 Toronto St.,3,3,,,terminal,48217,,,,,T-38-MI-3015
450,Detroit Refinery,Detroit,,,,,,42.280855,-83.151583,TRUE,,MI,,1300 S Fort St,3,3,,,terminal,48217,,,,,T-38-MI-3049
451,Dexter,Dexter,,,,,,36.7892,-89.9162,TRUE,,MO,, ,54,54,,,terminal,63841,,,,,0
452,Dickinson,Dickinson,,,,,,46.860033,-102.894367,TRUE,,ND,,3815 116th Ave SW,350,350,,,terminal,58601,,,,,T-45-ND-3509
453,Dillingham,San Diego,,,,,,32.703544,-117.155656,TRUE,,CA,,961 E. Harbor Dr.,203,203,,,terminal,92101,,,,,T-33-CA-4747
454,Dillingham,Memphis,,,,,,35.071361,-89.975677,TRUE,,TN,,2640 Rental Road,201,201,,,terminal,38118,,,,,T-62-TN-2223
455,Dillingham,Dillingham,,,,,,59.038766,-158.465783,TRUE,,AK,,309 Main St.,36,36,,,terminal,99576,,,,,T-91-AK-4526
456,Dillingham,Dillingham,,,,,,59.042149,-158.48282,TRUE,,AK,,106 North Pacific Ct.,189,189,,,terminal,99576,,,,,T-92-AK-4577
457,Dodge City Plant,Spearville,,,,,,37.7506,-99.9426,TRUE,,KS,, ,11,11,,,terminal,67876,,,,,0
458,Doniphan,Doniphan,irene.wirit@magellanlp.com,(402) 744-3781,Irene Wirit,(402) 744-3711,Terminal Contact,40.7522,-98.3769,TRUE,,NE,500000,12275 South US Hwy 281,2,477,,,terminal,68832,in,,both,,T-47-NE-3602
459,Doraville TMP,Atlanta,,,,7704585588,,33.91747,-84.272062,TRUE,,GA,483000,2836 Woodwin Road,8,8,,3,terminal,30360,,,,,T-58-GA-2525
460,Doraville,Atlanta,,,,,,33.910914,-84.273331,TRUE,,GA,,4026 Winters Chapel Road,12,12,,,terminal,30340,,,,,T-58-GA-2528
461,Doraville,Atlanta,,,,,,33.908679,-84.271086,TRUE,,GA,,6293 New Peachtree Road,3,3,,,terminal,30340,,,,,T-58-GA-2532
462,Doraville MPL 1,Atlanta,,7704512409,,7704573026,,33.917561,-84.263591,TRUE,,GA,,4149 Winters Chapel Road,2,2,,,terminal,30340,,,,,T-58-GA-2533
463,Doraville KMI 2,Doraville,,,,,,33.912475,-84.273358,TRUE,,GA,,4064 Winters Chapel Rd,4,470,,,terminal,30360,,,,,T-58-GA-2534
464,Doraville MPL 2,Atlanta,,7704513049,,7704576272,,33.915594,-84.273099,TRUE,,GA,,2797 Woodwin Road,2,2,,,terminal,30360,,,,,T-58-GA-2535
465,Doraville KMI 3,Doraville,,,,,,33.911219,-84.267498,TRUE,,GA,,6430 New Peachtree Road,4,470,,,terminal,30340,,,,,T-58-GA-2526
466,Doraville Eastwest,Atlanta,,,,,,33.915266,-84.268278,TRUE,,GA,,4143 Winters Chapel Rd,10,10,,,terminal,30360,,,,,T-58-GA-2531
467,Doraville South,Atlanta,,,,,,33.914296,-84.268602,TRUE,,GA,,4127 Winters Chapel Rd.,10,10,,,terminal,30360,,,,,T-58-GA-2510
468,Douglas,Douglas,,,,,,43.038305,-105.264736,TRUE,,WY,,2079 Hwy 59,267,267,,,terminal,82633,,,,,T-83-WY-4060
469,Dover,Dover,,,,,,39.169535,-75.440012,TRUE,,DE,,Port Mahon Rd.,204,204,,,terminal,19901,,,,,T-52-DE-1602
470,Dravosburg,Dravosburg,,,,,,40.35414,-79.880788,TRUE,,PA,,702 Washington Avenue,446,446,,,terminal,15034,,,,,T-25-PA-1762
471,Dravosburg (Pittsburgh),Dravosburg,,4124661999,Nick Borelli,4124664100,Terminal Manager,40.3548,-79.8794,TRUE,,PA,243000,702 Washington Avenue,4,472,,,terminal,15034,none,none,both,both,0
472,Dublin,Dublin,,,,,,40.100152,-83.191539,TRUE,,OH,,6433 Cosgray Road,9,9,,,terminal,43016,,,,,T-31-OH-3120
473,Dubois,Luthersburg,,,,,,41.032,-78.6743,TRUE,,PA,, ,23,23,,,terminal,15848,,,,,0
474,Dubuque,Dubuque,jeff.selvidge@magellanlp.com,(563) 588-4210,Jeff Selvidge,(563) 588-3311,Terminal Contact,42.436426,-90.716921,TRUE,,IA,100000,8038 St Joe's Prairie Rd,2,2,,,terminal,52003,in,,both,,T-42-IA-3460
475,Dubuque,Dubuque,,,,,,42.4817,-90.7872,TRUE,,IA,, ,52,52,,,terminal,52003,,,,,0
476,Dubuque,Zwingle,,,,,,42.3386,-90.6986,TRUE,,IA,, ,24,24,,,terminal,52079,,,,,0
477,Dubuque Asphalt,Dubuque,,,,563-556-1304,,42.5086,-90.6535,TRUE,,IA,,1550 Koch Court,14,14,,,terminal,52001,,,,,0
478,Dulac,Dulac,,,,,,29.343345,-90.733206,TRUE,,LA,,9576 Grand Caillou Rd,43,43,,,terminal,70354,,,,,T-72-LA-2410
479,Dulac,Dulac,,,,,,29.3427,-90.7329,TRUE,,LA,, ,13,13,,,terminal,70353,,,,,0
480,Duluth,Duluth,,,,,,46.708745,-92.282716,TRUE,,MN,,5746 Old Hwy 61,112,112,,,terminal,55810,,,,,T-41-MN-3410
481,Dumfries,Dumfries,,,,,,38.5596,-77.265,TRUE,,VA,, ,136,136,,,terminal,22026,,,,,0
482,Duncan,Duncan,,,,,,34.5022,-97.9575,TRUE,,OK,, ,211,211,,,terminal,73533,,,,,0
483,Duncombe,Duncombe,,,,0,,42.463053,-94.016459,TRUE,,IA,,3140 Two Hundred Street,80,80,,,terminal,50532,,,,,T-42-IA-3461
484,Dupont,Dupont,,,,(303) 286-6400,,39.846539,-104.917419,TRUE,,CO,,8160 Krameria Street,2,2,,,terminal,80024,,,,,T-84-CO-4105
485,Dupont,Pittston,,,,,,41.3131,-75.7416,TRUE,,PA,, ,49,49,,,terminal,18640,,,,,0
486,Dupont,Pittston,,,,,,41.3355,-75.7434,TRUE,,PA,, ,37,37,,,terminal,18641,,,,,0
487,Dutch Harbor,Dutch Harbor,,,,,,53.906279,-166.509365,TRUE,,AK,,1787 Ballyhoo Rd.,47,47,,,terminal,99692,,,,,T-91-AK-4511
488,Dutch Harbor,Dutch Harbor,,,,,,53.885808,-166.538324,TRUE,,AK,,Captain Bay,431,431,,,terminal,99692,,,,,T-91-AK-4522
489,Dutch Harbor,Dutch Harbor,,,,,,53.883999,-166.545678,TRUE,,AK,,1577 E. Point Loop Rd.,36,36,,,terminal,99692,,,,,T-91-AK-4528
490,Eagle Point,Verga,,,,,,39.8718,-75.1558,TRUE,,NJ,, ,5,5,,,terminal,8093,,,,,0
491,East Boston,Boston,,,,,,42.384507,-71.023031,TRUE,,MA,,580 Chelsea Street,5,5,,,terminal,2128,,,,,T-04-MA-1154
492,East Chicago,East Chicago,,,,,,41.639393,-87.467798,TRUE,,IN,,400 East Columbus Dr,1,1,,,terminal,46312,,,,,T-35-IN-3225
493,East Chicago,East Chicago,,,,,,41.62886,-87.44584,TRUE,,IN,,2500 East Chicago Ave,9,9,,,terminal,46312,,,,,T-35-IN-3209
494,East Hartford,East Hartford,,,,,,41.776414,-72.639824,TRUE,,CT,,1351 Main Street,380,380,,,terminal,6108,,,,,T-06-CT-1286
495,East Hartford,East Hartford,,,,,,41.7763,-72.6389,TRUE,,CT,, ,135,135,,,terminal,6108,,,,,0
496,East Haven,East Haven,,,,,,41.294956,-72.902205,TRUE,,CT,,500 Waterfront Street,44,44,,,terminal,6512,,,,,T-06-CT-1262
497,East Houston,Greens Bayou,,,,,,29.743939,-95.200106,TRUE,,TX,,12901 American Petroleum Rd.,2,2,,,terminal,77015,,,,,T-76-TX-2792
498,East Houston,Houston,,7139330608,,7139330695,,29.792611,-95.284843,TRUE,,TX,,7901 Wallisvile Road,2,2,,,terminal,77020,,,,,T-76-TX-2831
499,East Liverpool,East Liverpool,,,,3303855424,,40.619065,-80.567246,TRUE,,OH,227000,425 River Road,8,8,,8,terminal,43920,,,,,T-34-OH-3174
500,East Pht,Mont Belvieu,,,,,,29.8578,-94.9072,TRUE,,TX,, ,26,26,,,terminal,77523,,,,,0
501,East Providence,East Providence,,,,,,41.835864,-71.36696,TRUE,,RI,,100 Dexter Road,275,275,,,terminal,2914,,,,,T-05-RI-1203
502,East Providence XOM,Riverside,,,,,,41.7858,-71.334,TRUE,,RI,,1001 Wampanoag Trail,16,16,,,terminal,2914,,,,,T-05-RI-1207
503,East Rochester,Rochester,,,,,,40.6964,-80.2694,TRUE,,PA,, ,72,72,,,terminal,15074,,,,,0
504,East Setauket,East Setauket,,,,,,40.9163,-73.0937,TRUE,,NY,, ,427,427,,,terminal,11733,,,,,0
505,East St. Louis,East Saint Louis,,,,(618) 337-6066,,38.582,-90.1882,TRUE,,IL,2085000,3300 Mississippi Ave,7,475,78000,6,terminal,62206,,both,both,,T-37-IL-3366
506,Eau Claire,Eau Claire,,,,,,44.886941,-91.509556,TRUE,,WI,,3008 - 80th Street,425,425,,,terminal,54703,,,,,T-41-MN-3425
507,Edinburg,McAllen,ed.gamez@nustarenergy.com,9563161236,Ed Gamez,9563163885,Terminal Contact,26.3802,-98.1452,TRUE,,TX,275000,222 West Ingle Road,6,6,,4,terminal,78541,both,none,both,none,T-74-TX-2700
508,Effingham,Effingham,,,,,,39.178473,-88.518832,TRUE,,IL,,18264 N US Hwy 45,1,1,,,terminal,62401,,,,,T-37-IL-3368
509,El Dorado,El Dorado,,,,,,37.805005,-96.880409,TRUE,,KS,,South Haverhill Road,30,30,,,terminal,67042,,,,,T-48-KS-3654
510,El Dorado,El Dorado,,,,,,33.178579,-92.428662,TRUE,,AR,,1000 McHenry,329,329,,,terminal,71730,,,,,T-71-AR-2451
511,El Dorado,El Dorado,,,,,,37.8101,-96.8348,TRUE,,KS,, ,11,11,,,terminal,67042,,,,,0
512,El Mirage,Peoria,,,,,,33.565839,-112.320676,TRUE,,AZ,,12126 W Olive Avenue,71,71,,,terminal,85345,,,,,T-86-AZ-4318
513,El Paso ANDV,El Paso,,,,,,31.77117,-106.403116,TRUE,,TX,,6501 Trowbridge,48,48,,,terminal,79905,,,,,T-74-TX-2724
514,El Paso HFC,El Paso,,,,,,31.770227,-106.389009,TRUE,,TX,,1000 Eastside & 897 Hawkins,231,231,,,terminal,79915,,,,,T-74-TX-2726
515,El Paso NUS,El Paso,wendell.odom@nustarenergy.com,9158577482,Wendell Odom,9158577484,Terminal Contact,31.8223,-106.259,TRUE,,TX,499000,4200 Justice Road,6,476,,6,terminal,79936,both,none,both,none,T-74-TX-2750
516,El Paso MPL,El Paso,,9158491781,,9158491783,,31.813473,-106.216354,TRUE,,TX,,13551 East Montana Avenue,2,2,,,terminal,79938,,,,,T-74-TX-2751
517,El Segundo,Manhattan Beach,,,,,,33.906929,-118.415572,TRUE,,CA,,324 West El Segundo Blvd,12,12,,,terminal,90266,,,,,T-95-CA-4800
518,Elizabeth,Elizabeth,,,,,,40.67741,-74.18995,TRUE,,NJ,,North Avenue & Division St.,318,318,,,terminal,7201,,,,,T-22-NJ-1532
519,Elk Grove,Elk Grove,,,,,,38.3811,-121.3588,TRUE,,CA,, ,182,182,,,terminal,95624,,,,,0
520,Elkhart,Elkhart,,,,,,41.667007,-85.981173,TRUE,,IN,,2600 W. Lusher Rd.,87,87,,,terminal,46517,,,,,T-35-IN-3245
521,Enfield,Enfield,,,,,,42.001547,-72.593367,TRUE,,CT,,777 Enfield St.,289,289,,,terminal,6082,,,,,T-06-CT-1282
522,Enid,Enid,jeff.selvidge@magellanlp.com,(580) 234-0148,Jeff Selvidge,(580) 234-6748,Terminal Contact,36.411,-97.8362,TRUE,,OK,300000,1401 North 30th Street ,2,477,,,terminal,73701,in,,out,,T-73-OK-2606
523,Ennis Plant,Ennis,,,,,,32.356299,-96.6424,TRUE,,TX,, ,11,11,,,terminal,75119,,,,,0
524,Erie Blvd,Albany,,,,,,42.6309,-73.7542,TRUE,,NY,, ,20,20,,,terminal,12202,,,,,0
525,Eugene,Eugene,,,,5416891545,,44.090891,-123.157443,TRUE,,OR,708125,1765 Prairie Road,4,134,,4,terminal,97402,in,,out,,T-93-OR-4454
526,Euless,Euless,,,,,,32.812524,-97.091921,TRUE,,TX,,12625 Calloway Cemetary Rd,386,386,,,terminal,76040,,,,,T-75-TX-2690
527,Euless,Euless,,,,,,32.810899,-97.0939,TRUE,,TX,, ,265,265,,,terminal,76040,,,,,0
528,Euless Loading Facility,Euless,,,,,,32.810899,-97.0972,TRUE,,TX,, ,4,472,,,terminal,76040,,,,,0
529,Eureka,Eureka,,,,,,40.776324,-124.193496,TRUE,,CA,,3400 Christie Street,12,12,,,terminal,95501,,,,,T-68-CA-4606
530,Evanston,Evanston,,,,,,41.274759,-110.963747,TRUE,,WY,,2990 County Rd. #180,358,358,,,terminal,82930,,,,,T-84-WY-4058
531,Evansville,Evansville,,,,,,37.970535,-87.604909,TRUE,,IN,,2500 Broadway,3,3,,,terminal,47712,,,,,T-35-IN-3207
532,Evansville,Evansville,,,,8124235427,,37.96914,-87.605656,TRUE,,IN,245000,2630 Broadway,8,8,,3,terminal,47712,,,,,T-35-IN-3213
533,Everett,Everett,,,,,,42.397257,-71.060518,TRUE,,MA,,52 Beacham Street,16,16,,,terminal,2149,,,,,T-04-MA-1156
534,Exton,Exton,,,,,,40.029985,-75.614699,TRUE,,PA,,601 East Lincoln Hwy,5,5,,,terminal,19341,,,,,T-23-PA-1710
535,Fairfax,Fairfax,,,,,,38.848266,-77.277648,TRUE,,VA,,9600 Colonial Avenue,9,9,,,terminal,22031,,,,,T-54-VA-1661
536,Fairfax,Fairfax,,,,,,38.847447,-77.277727,TRUE,,VA,,9601 Colonial Avenue,1,1,,,terminal,22031,,,,,T-54-VA-1659
537,Fairfax,Fairfax,,,,7033231500,,38.848852,-77.273896,TRUE,,VA,513000,3790 Pickett Road,8,8,,3,terminal,22031,,,,,T-54-VA-1660
538,Fairfax,Fairfax,,,,,,38.847342,-77.273151,TRUE,,VA,,3800 Pickett Road,10,10,,,terminal,22031,,,,,T-54-VA-1662
539,Fannett,Beaumont,,,,,,29.975,-94.0583,TRUE,,TX,, ,90,90,,,terminal,77705,,,,,0
540,Fargo,Fargo,,7012819502,,7012823208,,46.876757,-96.882753,TRUE,,ND,,902 Main Avenue East,2,2,,,terminal,58078,,,,,T-45-ND-3501
541,Fargo Asphalt,West Fargo,,,,701-282-4610,,46.8826,-96.8998,TRUE,,ND,,600 Center St.,14,14,,,terminal,58078,,,,,0
542,Farmington,Farmington,,,,,,40.6981,-90.0058,TRUE,,IL,, ,24,24,,,terminal,61531,,,,,0
543,Fayetteville,Fayetteville,,,,,,35.115076,-78.917789,TRUE,,NC,,992 Shaw Mill Road,10,10,,,terminal,28311,,,,,T-56-NC-2009
544,Ferndale,Ferndale,,,,,,48.834654,-122.705116,TRUE,,WA,,4100 Unick Road,314,314,,,terminal,98248,,,,,T-33-WA-0001
545,Ferndale,Ferndale,,,,,,48.830153,-122.692623,TRUE,,WA,,3901 Unic Rd.,7,475,,,terminal,98248,,,,,T-91-WA-4427
546,Ferndale,Mountain View,,,,,,48.834,-122.6992,TRUE,,WA,, ,316,316,,,terminal,98248,,,,,0
547,Ferrysburg,Spring Lake,,,,,,43.084457,-86.230163,TRUE,,MI,,17806 North Shore Dr.,1,1,,,terminal,49456,,,,,T-38-MI-3013
548,Fisher Island,Miami Beach,,,,3056721065,,25.761042,-80.141003,TRUE,,FL,673000,41200 Fisher Island Dr,8,8,,,terminal,33109,,,,,T-65-FL-2166
549,Flagstaff,Flagstaff,,,,,,35.210143,-111.408412,TRUE,,AZ,, ,26,26,,,terminal,86004,,,,,0
550,Flint BPL,Flint,,,,,,43.086089,-83.673129,TRUE,,MI,,G5340 North Dort Highway,1,1,,,terminal,48505,,,,,T-38-MI-3022
551,Floreffe - Asphalt,Clairton,,,,,,40.2577,-79.9142,TRUE,,PA,, ,3,3,,,terminal,15025,,,,,0
552,Flushing,Flushing,,,,,,40.767413,-73.840542,TRUE,,NY,,31-70 College Point Blvd,319,319,,,terminal,11354,,,,,T-11-NY-1306
553,Flushing,East Elmhurst,,,,,,40.7712,-73.867514,TRUE,,NY,,"Fuel Facility, Bldg #42",362,362,,,terminal,11369,,,,,T-11-NY-1335
554,Fontana Plant,Fontana,,,,,,34.062493,-117.479558,TRUE,,CA,, ,11,11,,,terminal,92337,,,,,0
555,Forest View,Forest View,,,,,,41.802294,-87.801677,TRUE,,IL,,5027 South Harlem Avenue,41,41,,,terminal,60402,,,,,T-72-IL-0002
556,Fort Dodge,Fort Dodge,,(515) 543-4564,,(515) 543-4563,,42.4981,-94.0208,TRUE,,IA,100000, 3140 Two Hundred Street ,2,477,,,terminal,50532,,,,,0
557,Fort Lauderdale CGO,Fort Lauderdale,,,,,,26.09013,-80.133764,TRUE,,FL,,801 SE 28th Street,9,9,,,terminal,33316,,,,,T-65-FL-2157
558,Fort Lauderdale CVX,Fort Lauderdale,,,,,,26.091973,-80.127762,TRUE,,FL,,1400 SE 24th St,130,130,,,terminal,33316,,,,,T-65-FL-2153
559,Fort Lauderdale BPL,Fort Lauderdale,,,,,,26.097774,-80.128234,TRUE,,FL,,1501 SE 20th St.,1,1,,,terminal,33316,,,,,T-65-FL-2156
560,Fort Lauderdale MOT,Fort Lauderdale,,,,,,26.0907,-80.1613,TRUE,,FL,, ,10,10,,,terminal,33315,,,,,0
561,Fort Lauderdale - Eisenhower,Fort Lauderdale,,,,,,26.097827,-80.126348,TRUE,,FL,,1601 SE 20th St,3,3,,,terminal,33316,,,,,T-65-FL-2160
562,Fort Lauderdale - Spangler,Fort Lauderdale,,,,,,26.093111,-80.132273,TRUE,,FL,,909 SE 24th St.,3,3,,,terminal,33316,,,,,T-65-FL-2163
563,Fort Madison,Fort Madison,,,,,,40.6108,-91.3979,TRUE,,IA,, ,50,50,,,terminal,52627,,,,,0
564,Fort Smith,Fort Smith,,(501) 646-1649,Terry Gill,(501) 646-1721,Operator,35.308359,-94.395187,TRUE,,AR,,8101 Highway 71 South ,2,477,,,terminal,72908,,,,,T-71-AR-2453
565,Fort Worth CVX,Fort Worth,,,,,,32.789391,-97.327143,TRUE,,TX,,2525 Brennan Street,12,12,,,terminal,76106,,,,,T-75-TX-2666
566,Fort Worth USO,Fort Worth,,,,,,32.820383,-97.349543,TRUE,,TX,,301 Terminal Road,19,19,,,terminal,76106,,,,,T-75-TX-2667
567,Fort Worth MOT,Fort Worth,,,,,,32.801873,-97.308089,TRUE,,TX,,3200 N. Sylvania,10,10,,,terminal,76111,,,,,T-75-TX-2669
568,Fort Worth Ethanol Terminal,Fort Worth,,,,,,32.830599,-97.3246,TRUE,,TX,, ,395,395,,,terminal,76106,,,,,0
569,Fort Worth/Euless,Euless,,,,817-685-3445,,32.81658,-97.099671,TRUE,,TX,,12550 Trinity Blvd,14,14,,,terminal,76040,,,,,T-75-TX-2664
570,Fort Yukon,Fort Yukon,,,,,,66.564719,-145.27389,TRUE,,AK,,William Loola St.,32,32,,,terminal,99740,,,,,T-91-AK-4540
571,Fort Yukon,Fort Yukon,,,,,,66.5633,-145.2666,TRUE,,AK,, ,34,34,,,terminal,99740,,,,,0
572,Fountain,Fountain,,,,,,38.669365,-104.704117,TRUE,,CO,,1004 South Sante Fe,2,2,,,terminal,80817,,,,,T-84-CO-4106
573,Fourchon,Golden Meadow,,,,,,29.1151,-90.2071,TRUE,,LA,, ,13,13,,,terminal,70357,,,,,0
574,Fourchon 15,Golden Meadow,,,,,,29.1157,-90.1978,TRUE,,LA,, ,13,13,,,terminal,70357,,,,,0
575,Fourchon 16,Golden Meadow,,,,,,29.3759,-90.2598,TRUE,,LA,, ,13,13,,,terminal,70357,,,,,0
576,Fourchon Magnolia,Golden Meadow,,,,,,29.2478,-90.2075,TRUE,,LA,, ,13,13,,,terminal,70357,,,,,0
577,Fredericksburg,Fredericksburg,,,,,,38.283423,-77.454402,TRUE,,VA,,3300 Beaulah Salisbury,120,120,,,terminal,22408,,,,,T-54-VA-1695
578,Freeport,Freeport,,,,,,30.492551,-86.138082,TRUE,,FL,,424 Madison St,45,45,,,terminal,32439,,,,,T-59-FL-2115
579,Freeport,Freeport,,,,,,28.970022,-95.286347,TRUE,,TX,,1122 Marlin Lane,55,55,,,terminal,77541,,,,,T-76-TX-2840
580,Freshwater City Dock,Kaplan,,,,,,29.6554,-92.3709,TRUE,,LA,, ,13,13,,,terminal,70548,,,,,0
581,Fresno,Fresno,,,,5592374612,,36.6751,-119.747985,TRUE,,CA,940210,4149 South Maple Avenue,4,134,,7,terminal,93725,in,,,,T-77-CA-4651
582,Frost,Mertens,,,,9036823216,,32.063388,-96.86592,TRUE,,TX,,21115 West State Highway 22,2,2,,,terminal,76666,,,,,0
583,Fruita,Fruita,,,,,,39.155042,-108.731329,TRUE,,CO,,1493 Hwy 6 & 50,98,98,,,terminal,81521,,,,,T-84-CO-4107
584,Fruita,Fruita,,,,,,39.149614,-108.685164,TRUE,,CO,,1629 21 Road,98,98,,,terminal,81521,,,,,T-84-CO-4112
585,Fruita,Fruita,,,,,,39.1455,-108.7128,TRUE,,CO,, ,191,191,,,terminal,81521,,,,,0
586,Fruita Plant,Fruita,,,,,,39.159,-108.7185,TRUE,,CO,, ,127,127,,,terminal,81521,,,,,0
587,Ft Lauderdale,Ft Lauderdale,,,,,,26.086401,-80.126287,TRUE,,FL,,8100 Eisenhower Blvd,328,328,,,terminal,33316,,,,,T-65-FL-2167
588,Ft Mitchell,Ft Mitchell,,,,,,39.027016,-84.559937,TRUE,,KY,,2462 Spence Dr.,15,15,,,terminal,41017,,,,,T-61-KY-3277
589,Ft. Lauderdale,Ft. Lauderdale,,,,,,26.08944,-80.127275,TRUE,,FL,,1500 SE 26 St,10,10,,,terminal,33316,,,,,T-65-FL-2154
590,Ft. Lauderdale,Ft. Lauderdale,,,,,,26.124057,-80.192725,TRUE,,FL,,3451 SW 2nd Ave.,15,15,,,terminal,33315,,,,,T-65-FL-2158
591,Fullerton,Whitehall,,,,,,40.6444,-75.4824,TRUE,,PA,, ,49,49,,,terminal,18052,,,,,0
592,Fullerton,Whitehall,,,,,,40.6448,-75.4818,TRUE,,PA,, ,5,5,,,terminal,18052,,,,,0
593,Galena,Galena,,,,,,64.7333,-156.9371,TRUE,,AK,, ,34,34,,,terminal,99741,,,,,0
594,Galena Park,Galena Park,,7134507485,Gary Delafosse,7134551231,Terminal Manager,29.731247,-95.231589,TRUE,,TX,7452619,906 Clinton Drive,4,4,,,terminal,77547,both,,,both,T-76-TX-2788
595,Galena Park,Houston,,,,,,29.742756,-95.210162,TRUE,,TX,,12523 American Petroleum Rd,12,12,,,terminal,77015,,,,,T-76-TX-2789
596,Galena Park,Houston,,,,,,29.741,-95.2123,TRUE,,TX,, ,56,56,,,terminal,77015,,,,,0
597,Galena Park West Chemical,Galena Park,,,,,,29.725406,-95.235559,TRUE,,TX,,1500 Clinton Drive,4,4,,,terminal,77547,,,,,T-76-TX-2819
598,Gallup,Gallup,,,,,,35.517929,-108.795615,TRUE,,NM,,I-40 Exit 39,48,48,,,terminal,87301,,,,,T-85-NM-4258
599,Galveston,Galveston,,,,,,29.195607,-94.981554,TRUE,,TX,,1300 Coastwide Drive,55,55,,,terminal,77554,,,,,T-76-TX-2839
600,Galveston,Galveston,,,,,,29.318,-94.8151,TRUE,,TX,, ,310,310,,,terminal,77554,,,,,0
601,Galveston - Pelican Island Terminal,Friendswood,,,,,,29.3248,-94.7872,TRUE,,TX,, ,13,13,,,terminal,77549,,,,,0
602,Galveston Dock,Friendswood,,,,,,29.3248,-94.7872,TRUE,,TX,, ,13,13,,,terminal,77549,,,,,0
603,Garden City Plant,Savannah,,,,,,32.1052,-81.1338,TRUE,,GA,, ,11,11,,,terminal,31408,,,,,0
604,Garyville,Garyville,,,,,,30.07095,-90.490101,TRUE,,LA,,Highway 61,3,3,,,terminal,70051,,,,,T-72-LA-2363
605,Garyville,Garyville,,,,,,30.073305,-90.603869,TRUE,,LA,,155 Sugarcane Road,3,3,,,terminal,70051,,,,,T-72-LA-2418
606,Garyville - Asphalt,Garyville,,,,,,30.0558,-90.6192,TRUE,,LA,, ,3,3,,,terminal,70051,,,,,0
607,Gateway,East Haven,,,,,,41.294128,-72.904089,TRUE,,CT,,400 Waterfront St.,448,448,,,terminal,6512,,,,,T-06-CT-1264
608,Geismer,Geismer,,,,,,30.216574,-91.004699,TRUE,,LA,,36187 Hwy 30,338,338,,,terminal,70734,,,,,T-72-LA-2402
609,Geneva,Geneva,larry.loseke@nustarenergy.com,(402) 759-3023,Larry Loseke,(402) 759-3162,Terminal Contact,40.5503,-97.5952,TRUE,,NE,649000, 1479 North 13th Street ,6,476,,2,terminal,68361,in,none,both,none,T-47-NE-3601
610,Gillette,Gillette,,,,,,44.027909,-105.465164,TRUE,,WY,,9397 Highway 59 South,151,151,,,terminal,82718,,,,,T-84-WY-4057
611,Glendale,Glendale,,,,,,33.5526,-112.2119,TRUE,,AZ,, ,83,83,,,terminal,85303,,,,,0
612,Glendive,Glendive,,,,,,47.180623,-104.774873,TRUE,,MT,,P O Box 240,51,51,,,terminal,59330,,,,,T-81-MT-4006
613,Glenmont,Glenmont,,,,,,42.595704,-73.787766,TRUE,,NY,,Route 144 552 River Road,63,63,,,terminal,12077,,,,,T-14-NY-1405
614,Glenmont,Glenmont,,,,,,42.587206,-73.767489,TRUE,,NY,,495 River Road,9,9,,,terminal,12077,,,,,T-14-NY-1402
615,Glenpool EXP,Jenks,,,,,,35.9777,-96.0067,TRUE,,OK,, 1312 West 126th ,456,456,,,terminal,74037,,,,,0
616,Glenpool North,Jenks,,,Terry Redleaf,(918) 299-2911,Operator,36.013,-95.9942,TRUE,19000,OK,366000,10600 South Elwood ,7,475,,2,terminal,74037,both,,both,,T-73-OK-2608
617,Glenpool South,Glenpool,,,Thomas Petty,,Pipeline Operator,35.9752,-96.0039,TRUE,,OK,261000, 917 West 131st Street South,7,475,,0,terminal,74033,,,,,0
618,Glenwood Landing,Glenwood Landing,,,,,,40.82367,-73.645699,TRUE,,NY,,Shore & Glenwood Rd,20,20,,,terminal,11547,,,,,T-11-NY-1309
619,Gloucester City Nj,Gloucester City,,,,,,39.8955,-75.128,TRUE,,NJ,, ,29,29,,,terminal,8030,,,,,0
620,Golden Meadow,Golden Meadow,,,,,,29.569111,-90.400213,TRUE,,LA,,300 Adam Ted Gisclair Rd,43,43,,,terminal,70357,,,,,T-72-LA-2407
621,Grafton,Grafton,,,,,,41.304849,-82.020676,TRUE,,OH,,12545 S Avon Belden Rd,1,1,,,terminal,44044,,,,,T-34-OH-3145
622,Grand Forks,Grand Forks,,7017757606,,7017756256,,47.933196,-97.084752,TRUE,,ND,,3930 Gateway Drive,2,2,,,terminal,58203,,,,,T-45-ND-3500
623,Grand Island,Tonawanda,,,,,,42.991194,-78.925392,TRUE,,NY,,700 Grand Island Blvd.,419,419,,,terminal,14150,,,,,T-16-NY-1459
624,Grand Island,Cairo,,,,,,40.9759,-98.3231,TRUE,,NE,, ,29,29,,,terminal,68824,,,,,0
625,Grand Jct Plant,Grand Junction,,,,,,39.0602,-108.5683,TRUE,,CO,, ,29,29,,,terminal,81501,,,,,0
626,Grand Street,Brooklyn,,,,,,40.713896,-73.932403,TRUE,,NY,,1100 Grand Street,100,100,,,terminal,11211,,,,,T-11-NY-1325
627,Granger,Granger,,,,,,41.753387,-86.116053,TRUE,,IN,,12694 Adams Rd,1,1,,,terminal,46530,,,,,T-35-IN-3203
628,Granite City,Granite City,,,,,,38.7156,-90.1667,TRUE,,IL,, ,27,27,,,terminal,62040,,,,,0
629,Granville,Milwaukee,,,,,,43.182603,-88.044206,TRUE,,WI,,9101 North 107th Street,79,79,,,terminal,53224,,,,,T-39-WI-3062
630,Great Bend,Great Bend,jeff.binstock@magellanlp.com,(620) 792-3757,Jeff Binstock,(620) 792-4707,Terminal Contact,38.3689,-98.692,TRUE,,KS,600000,48 NE Highway 156,2,477,,,terminal,67530,in,,out,,T-48-KS-3655
631,Great Falls,Great Falls,,,,,,47.521321,-111.221099,TRUE,,MT,198000,1401 52nd N,7,475,,2,terminal,59405,,,,,T-81-MT-4002
632,Great Falls,Great Falls,,,,,,47.493898,-111.274518,TRUE,,MT,,1900 10th Street,261,261,,,terminal,59405,,,,,T-81-MT-4011
633,Greater Cincinnati,Covington,,,,8593310900,,39.073605,-84.5873,TRUE,,KY,189000,700 River Road,8,8,,4,terminal,41017,,,,,T-61-KY-3264
634,Green Bay,Green Bay,,,,,,44.528872,-88.012891,TRUE,,WI,,1124 North Broadway,19,19,,,terminal,54303,,,,,T-39-WI-3061
635,Green Bay,Green Bay,,,,,,44.531589,-87.995218,TRUE,,WI,,2206 N Quincy St,19,19,,,terminal,54302,,,,,T-39-WI-3070
636,Green Bay,Green Bay,,,,,,44.543203,-88.0221,TRUE,,WI,,1031 Hurlbut Street,3,3,,,terminal,54303,,,,,T-39-WI-3075
637,Green Bay,Green Bay,,,,,,44.532422,-88.012482,TRUE,,WI,,410 Prairie Ave,19,19,,,terminal,54303,,,,,T-39-WI-3077
638,Green Bay,Green Bay,,,,,,44.541707,-88.024036,TRUE,,WI,,1075 Hurlbut Ct,19,19,,,terminal,54303,,,,,T-39-WI-3089
639,Green Bay,Green Bay,,,,,,44.53101,-87.996066,TRUE,,WI,,2119 North Quincy Street,41,41,,,terminal,54302,,,,,T-72-WI-0003
640,Green Bay,Green Bay,,,,,,44.537145,-88.015963,TRUE,,WI,,1391 Bylsby Avenue,9,9,,,terminal,54303,in,,,,T-39-WI-3066
641,Green Bay Asphalt,Green Bay,,,,920-436-7720,,44.537004,-88.009676,TRUE,,WI,,1496 Bylsby Avenue,14,14,,,terminal,54309,,,,,0
642,Green Springs,Green Springs,,,,,,41.2481,-83.1128,TRUE,,OH,, ,50,50,,,terminal,44836,,,,,0
643,Greensboro,Greensboro,,,,,,36.079721,-79.924954,TRUE,,NC,,6900 West Market St,63,63,,,terminal,27409,,,,,T-56-NC-2019
644,Greensboro MOT,Greensboro,,,,,,36.074838,-79.917951,TRUE,,NC,,101 S. Chimney Rock Rd.,10,10,,,terminal,27409,,,,,T-56-NC-2021
645,Greensboro TMP,Greensboro,,,,3362992611,,36.076681,-79.921894,TRUE,,NC,479000,6801 West Market Street,8,8,,4,terminal,27409,,,,,T-56-NC-2022
646,Greensboro,Greensboro,,,,,,36.118065,-79.806961,TRUE,,NC,,6427 Bryan Blvd.,322,322,,,terminal,27408,,,,,T-56-NC-2038
647,Greensboro,Greensboro,,,,,,36.0786,-79.9252,TRUE,,NC,, ,27,27,,,terminal,27409,,,,,0
648,Greensboro KMI 1,Greensboro,,,,,,36.078074,-79.928149,TRUE,,NC,876000,6907 West Market Street,4,469,,,terminal,27409,in,,,,T-56-NC-2014
649,Greensboro MPL 1,Greensboro,,3366320279,,3362994167,,36.072788,-79.919094,TRUE,,NC,,115 Chimney Rock Road,2,2,,,terminal,27409,,,,,T-56-NC-2020
650,Greensboro MPL 2,Greensboro,,3362940690,,3362993621,,36.081093,-79.932798,TRUE,,NC,,7109 West Market Street,2,2,,,terminal,27409,,,,,T-56-NC-2011
651,Greensboro KMI 2,Greensboro,,,,,,36.075796,-79.934601,TRUE,,NC,490000,6376 Burnt Poplar Rd,4,469,,,terminal,27409,in,,,,T-56-NC-2015
652,Greensburg,Greensburg,,,,,,40.315028,-79.535741,TRUE,,PA,,Rural Delivery 6,1,1,,,terminal,15601,,,,,T-25-PA-1769
653,Greensburg,Greensburg,,,,,,40.289,-79.579,TRUE,,PA,, ,23,23,,,terminal,15601,,,,,0
654,Greenville,Greenville,,,,,,33.423788,-91.048883,TRUE,,MS,,942 N. Broadway,157,157,,,terminal,38701,,,,,T-59-MS-0001
655,Greenville,Greenville,,,,,,33.314539,-91.02297,TRUE,,MS,,2181 Harbor Front,115,115,,,terminal,38701,,,,,T-72-MS-2421
656,Greenville,Greenville,,,,,,33.434399,-91.0452,TRUE,,MS,, ,56,56,,,terminal,38701,,,,,0
657,Greenville North,Greenville,,,,6623322692,,33.404043,-91.068837,TRUE,,MS,350000,208 Short Clay Street,8,8,,7,terminal,38701,,,,,T-64-MS-2408
658,Greenville South,Greenville,,,,6623322692,,33.402555,-91.0682,TRUE,,MS,350000,310 Walthall Street,8,8,,7,terminal,38701,,,,,T-64-MS-2406
659,Greenwood,Waverly,,,,,,40.9446,-96.4669,TRUE,,NE,, ,24,24,,,terminal,68462,,,,,0
660,Gretna,Gretna,,,,,,29.922611,-90.059527,TRUE,,LA,,87 1st Street,285,285,,,terminal,70053,,,,,T-72-LA-2395
661,Gretna,Gretna,,,,,,29.9134,-90.0681,TRUE,,LA,, ,35,35,,,terminal,70053,,,,,0
662,Gretna,Gretna,,,,,,29.9224,-90.0592,TRUE,,LA,, ,93,93,,,terminal,70053,,,,,0
663,Griffin,Griffin,,,,7702272033,,33.280032,-84.264296,TRUE,,GA,102000,643B East McIntosh Road,8,8,,2,terminal,30223,,,,,T-58-GA-2537
664,Griffith,Griffith,,,,,,41.507843,-87.447268,TRUE,,IN,,1800 Avenue H,234,234,,,terminal,46319,,,,,T-35-IN-3250
665,Groton,Groton,,,,,,41.335988,-72.076719,TRUE,,CT,,443 Eastern Point Road,1,1,,,terminal,6340,,,,,T-06-CT-1255
666,Groton,Groton,,,,,,41.3366,-72.0777,TRUE,,CT,, ,64,64,,,terminal,6340,,,,,0
667,Guaynabo,Guaynabo,,,,,,18.3594,-66.1114,TRUE,,PR,, ,103,103,,,terminal,969,,,,,0
668,Gueydan,Gueydan,,,,,,30.037188,-92.637779,TRUE,,LA,,2254 S Talens Landing Rd,43,43,,,terminal,70542,,,,,T-72-LA-2403
669,Hackberry,Hackberry,,,,,,29.9958,-93.3419,TRUE,,LA,, ,56,56,,,terminal,70645,,,,,0
670,Haines,Haines,,,,,,59.312688,-135.681153,TRUE,,AK,,Mile 0 Haines,36,36,,,terminal,99827,,,,,T-91-AK-4513
671,Haines,Haines,,,,,,59.235004,-135.445321,TRUE,,AK,,900 Main St.,36,36,,,terminal,99827,,,,,T-91-AK-4525
672,Haines,Haines,,,,,,59.221782,-135.40525,TRUE,,AK,,#10 Beach Rd.,31,31,,,terminal,99827,,,,,T-91-AK-4574
673,Halstead Plant,Halstead,,,,,,38.0041,-97.5215,TRUE,,KS,, ,11,11,,,terminal,67056,,,,,0
674,Hammond VLO,Hammond,,,,,,41.639125,-87.506058,TRUE,,IN,,1020 141st St,66,66,,,terminal,46327,,,,,T-35-IN-3202
675,Hammond MRO,Hammond,,,,,,41.637389,-87.500274,TRUE,,IN,,4206 Columbia Avenue,3,3,,,terminal,46327,,,,,T-35-IN-3218
676,Hammond XOM,Hammond,,,,,,41.639623,-87.491987,TRUE,,IN,,1527 141th Street,16,16,,,terminal,46327,,,,,T-35-IN-3224
677,Hammond,East Chicago,,,,,,41.612645,-87.490301,TRUE,,IN,,3900 White Oak Avenue,41,41,,,terminal,46312,,,,,T-35-IN-3248
678,Hammond BPL,Hessville,,,Kathy Boslet,(219) 397-6666,,41.6101,-87.4711,TRUE,,IN,1322000,2400 Michigan St.,1,1,,,terminal,46323,in,,both,,T-35-IN-3228
679,Hampden,Hampden,,,,,,44.778238,-68.784697,TRUE,,ME,,809 Main Road No,411,411,,,terminal,4444,,,,,T-01-ME-1002
680,Harbor Island,Seattle,,,,2066824706,,47.579142,-122.35187,TRUE,,WA,825000,2720 13th Avenue SW,4,472,,,terminal,98134,in,none,both,both,T-91-WA-4406
681,Harbor Island,Bridgeport,,,,,,41.1672,-73.1656,TRUE,,CT,, ,215,215,,,terminal,6607,,,,,0
682,Harbor Island,Port Aransas,,,,,,27.751,-97.1364,TRUE,,TX,, ,13,13,,,terminal,78373,,,,,0
683,Harford Mills,Richford,,,,,,42.4221,-76.202,TRUE,,NY,, ,23,23,,,terminal,13835,,,,,0
684,Harlingen,Harlingen,dennis.mcmurray@nustarenergy.com,9564252462,Dennis McMurray,9564284923,Terminal Contact,26.205265,-97.599013,TRUE,,TX,281000,26306 Farm to Market 106,6,6,,4,terminal,78550,in,none,out,in,T-74-TX-2729
685,Harrisburg,Harrisburg,,,,,,40.25525,-76.801011,TRUE,,PA,,5140 Paxton Street,28,28,,,terminal,17111,,,,,T-23-PA-1713
686,Harristown,Niantic,,,,,,39.8408,-89.104,TRUE,,IL,,600 E. Lincoln Memorial Pky,1,1,,,terminal,62551,,,,,T-37-IL-3369
687,Hartford KMI,Hartford,,,David Perczynski,6182540695,Terminal Manager,38.841462,-90.085038,TRUE,,IL,2064000,1000 BP Lane,4,470,,,terminal,62048,both,,,,T-37-IL-3351
688,Hartford P66,East Alton,,,,(618) 251-2780,,38.812,-90.094,TRUE,25000,IL,1075000,2150 Delmar,7,475,,3,terminal,62024,,,both,both,T-37-IL-3353
689,Hartford,Roxana,,,,,,38.842173,-90.086606,TRUE,,IL,,900 North Delmar,465,465,,,terminal,62084,,,,,T-37-IL-3354
690,Hartford,East Alton,,,,,,38.819585,-90.094283,TRUE,,IL,,1402 S Delmare,70,70,,,terminal,62024,,,,,T-43-IL-3729
691,Hartford,Hartford,,,,,,38.8411,-90.0957,TRUE,,IL,, ,73,73,,,terminal,62048,,,,,0
692,Hartford MRO,Hartford,,,,,,38.8335,-90.0901,TRUE,,IL,, ,3,3,,,terminal,62048,,,,,0
693,Hartford BPL,Hartford,,,,(618) 255-1100,,38.8335,-90.0901,TRUE,,IL,585000,220 E Hawthorne Street,1,1,,,terminal,62048,both,,both,,T-37-IL-3356
694,Harvey,Harvey,,,,,,29.914679,-90.069984,TRUE,,LA,,1145 4th ST,118,118,,,terminal,70058,,,,,T-72-LA-2401
695,Harvey (New Orleans),Harvey,,5043481893,Mike Mahoney,5043404911,Terminal Manager,29.9108,-90.0861,TRUE,,LA,3099734,3450 River Road,4,4,,,terminal,70058,,,,both,0
696,Hatboro,Hatboro,,,,,,40.161446,-75.114665,TRUE,,PA,,3290 Sunset Lane,5,5,,,terminal,19040,,,,,T-23-PA-1751
697,Hattiesburg,Petal,,,,,,31.3725,-89.2681,TRUE,,MS,, ,128,128,,,terminal,39465,,,,,0
698,Hattiesburg,Petal,,,,,,31.3642,-89.2678,TRUE,,MS,, ,56,56,,,terminal,39465,,,,,0
699,Hayti,Hayti,,,,,,36.23368,-89.74953,TRUE,,MO,,2353 N State Hwy D,433,433,,,terminal,63851,,,,,T-43-MO-3729
700,Hearne,Hearne,,,,,,30.878652,-96.593229,TRUE,,TX,,Highway 6 South,5,5,,,terminal,77859,,,,,T-74-TX-2658
701,Hearne,Hearne,,,,,,30.878652,-96.593229,TRUE,,TX,,Highway 6 South,10,10,,,terminal,77859,,,,,T-74-TX-2702
702,Heath,Heath,,,,,,40.023743,-82.46927,TRUE,,OH,,840 Heath Road,3,3,,,terminal,43056,,,,,T-31-OH-3102
703,Heavener,Heavener,,,,,,34.889408,-94.60364,TRUE,,OK,,403 West First Street,297,297,,,terminal,74937,,,,,T-73-OK-2628
704,Hebert SUN,Beaumont,,,,,,29.983,-94.06,TRUE,,TX,, ,5,5,,,terminal,77705,,,,,0
705,Helena P66,Helena,,,,,,46.591685,-111.980598,TRUE,,MT,178000,3180 Highway 12 East,7,475,,1,terminal,59601,,,,,T-81-MT-4003
706,Helena XOM,Helena,,,,,,46.591826,-111.982125,TRUE,,MT,,3120 Highway 12 East,16,16,,,terminal,59601,,,,,T-81-MT-4009
707,Henderson,Henderson,,,,,,37.813049,-87.663409,TRUE,,KY,,2321 Old Geneva Road,67,67,,,terminal,42420,,,,,T-61-KY-3265
708,Henderson TMP,Henderson,,,,2708306187,,37.876372,-87.573067,TRUE,,KY,169000,2633 Sunset Lane,8,8,,5,terminal,42420,,,,,T-61-KY-3279
709,Henderson,Henderson,,,,,,37.8129,-87.6633,TRUE,,KY,, ,107,107,,,terminal,42420,,,,,0
710,Hermiston,Hermiston,,,,,,45.84041,-119.28946,TRUE,,OR,,"Route 1, Simplot Rd.",25,25,,,terminal,97838,,,,,T-91-OR-4465
711,Hess Tioga Gas Plant,Tioga,,,,,,48.3947,-102.9164,TRUE,,ND,, ,150,150,,,terminal,58852,,,,,0
712,Heyworth,Heyworth,,3094732515,,3094733031,,40.298045,-88.942462,TRUE,,IL,,16490 East 100 North Road,2,2,,,terminal,61745,,,,,T-37-IL-3371
713,High Rock,Denton,,,,,,35.6134,-80.1778,TRUE,,NC,, ,81,81,,,terminal,27239,,,,,0
714,Highspire,Middletown,,,,,,40.2201,-76.7915,TRUE,,PA,, ,37,37,,,terminal,17057,,,,,0
715,Hilo,Hilo,,,,,,19.726465,-155.056118,TRUE,,HI,,666 Kalanianaole Avenue,12,12,,,terminal,96720,,,,,T-99-HI-4552
716,Hilo,Hilo,,,,,,19.726615,-155.056502,TRUE,,HI,,661 Kalanianaole Ave.,57,57,,,terminal,96720,,,,,T-99-HI-4558
717,Hilo ANDV 1,Hilo,,,,,,19.726981,-155.05565,TRUE,,HI,,607 Kalanianaole Ave.,74,74,,,terminal,96720,,,,,T-99-HI-4559
718,Hilo ANDV 2,Hilo,,,,,,19.728341,-155.052736,TRUE,,HI,,701 Kalanianaole Street,74,74,,,terminal,96720,,,,,T-99-HI-4561
719,Hilo,Kahului,,,,,,20.893669,-156.462041,TRUE,,HI,,60 Hobron Ave.,57,57,,,terminal,96732,,,,,T-99-HI-4566
720,Hilo,Hilo,,,,,,19.727,-155.0555,TRUE,,HI,, ,82,82,,,terminal,96720,,,,,0
721,Hilo Baseyardhawaii,Hilo,,,,,,19.727,-155.0555,TRUE,,HI,, ,60,60,,,terminal,96720,,,,,0
722,Hilo 2 West,Hilo,,,,,,19.729618,-155.050022,TRUE,,HI,,999 Kalanianaole Ave.,57,57,,,terminal,96720,,,,,T-99-HI-4560
723,HO NGL - Almeda 1 ,Channelview,,,,,,29.7494,-95.1236,TRUE,,TX,, ,22,22,,,terminal,77530,,,,,0
724,HO NGL - Texas City,Texas City,,,,,,29.3774,-94.9143,TRUE,,TX,, ,22,22,,,terminal,77590,,,,,0
725,Hobbs,Higginbotham,,,,,,32.9011,-102.992,TRUE,,TX,, ,24,24,,,terminal,79323,,,,,0
726,Holland,Holland,,,,,,42.773212,-86.12691,TRUE,,MI,,630 Ottawa Avenue,229,229,,,terminal,49423,,,,,T-38-MI-3041
727,Holtsville,Holtsville,,,,,,40.812815,-73.065889,TRUE,,NY,,586 Union Ave.,429,429,,,terminal,11742,,,,,T-11-NY-1310
728,Homer,Homer,,,,,,59.601382,-151.412458,TRUE,,AK,,4755 Homer Spit Rd.,31,31,,,terminal,99603,,,,,T-91-AK-4514
729,Honolulu,Honolulu,,,,,,21.333699,-157.915151,TRUE,,HI,,200 Rodgers Blvd.,15,15,,,terminal,96819,,,,,T-91-HI-4570
730,Honolulu CVX,Honolulu,,,,,,21.315279,-157.874654,TRUE,,HI,,933 North Nimitz Highway,12,12,,,terminal,96817,,,,,T-99-HI-4553
731,Honolulu ANDV,Honolulu,,,,,,21.32837,-157.887254,TRUE,,HI,,2 Sand Island Access Rd.,74,74,,,terminal,96819,,,,,T-99-HI-4568
732,Hooper Bay,Hooper Bay,,,,,,61.53111,-166.09667,TRUE,,AK,,Village Rd.,32,32,,,terminal,99604,,,,,T-91-AK-4535
733,Hooper Bay,Hooper Bay,,,,,,61.5323,-166.0922,TRUE,,AK,, ,34,34,,,terminal,99604,,,,,0
734,Hoquiam,Hoquiam,,,,,,46.970094,-123.852829,TRUE,,WA,,3122 Port Industrial road,246,246,,,terminal,98550,,,,,T-91-WA-4433
735,Hoquiam,Hoquiam,,,,,,46.9706,-123.8539,TRUE,,WA,, ,257,257,,,terminal,98550,,,,,0
736,Houston GUL,Houston,,,,,,29.974857,-95.369709,TRUE,,TX,,17617 Aldine Westfield Rd.,44,44,,,terminal,77073,,,,,T-76-TX-2790
737,Houston USO,Houston,,,,,,29.94736,-95.417422,TRUE,,TX,,12325 North Fwy at Greens Rd,19,19,,,terminal,77060,,,,,T-76-TX-2794
738,Houston,Houston,,,,,,29.743671,-95.127934,TRUE,,TX,,15602 Jacinto Port Blvd.,402,402,,,terminal,77015,,,,,T-76-TX-2802
739,Houston,Houston,,,,,,29.795479,-95.349557,TRUE,,TX,,1801 Collingsworth,236,236,,,terminal,77009,,,,,T-76-TX-2805
740,Houston VLO,Houston,,,,,,29.720876,-95.253064,TRUE,,TX,,9701 Manchester,145,145,,,terminal,77012,,,,,T-76-TX-2806
741,Houston,Houston,,,,,,29.871094,-95.66173,TRUE,,TX,,Corner of Ferrall and E. Hardy,440,440,,,terminal,77084,,,,,T-76-TX-2817
742,Houston,Houston,,,,,,29.984648,-95.365199,TRUE,,TX,,2050 Fuel Storage Rd.,259,259,,,terminal,77073,,,,,T-76-TX-2818
743,Houston,Houston,,,,,,29.774972,-95.19409,TRUE,,TX,,1519 S Sheldon Company,320,320,,,terminal,77015,,,,,T-76-TX-2842
744,Houston,Houston,,,,,,29.647908,-95.265188,TRUE,,TX,,"8376 Monroe, Hobby Airport",131,131,,,terminal,77061,,,,,T-76-TZ-2793
745,Houston,Channelview,,,,,,29.7494,-95.1237,TRUE,,TX,, ,26,26,,,terminal,77530,,,,,0
746,Houston,Houston,,,,,,29.7557,-95.1047,TRUE,,TX,, ,241,241,,,terminal,77015,,,,,0
747,Houston,Houston,,,,,,29.9769,-95.3646,TRUE,,TX,, ,333,333,,,terminal,77073,,,,,0
748,Houston,Houston,,,,,,29.7479,-95.1799,TRUE,,TX,, ,210,210,,,terminal,77015,,,,,0
749,Houston 1,Houston,,,,,,29.6351,-95.2489,TRUE,,TX,, ,69,69,,,terminal,77075,,,,,0
750,Houston 2,Houston,,,,,,29.7241,-95.2622,TRUE,,TX,, ,69,69,,,terminal,77012,,,,,0
751,Houston NUS Asphalt,Houston,rene.correa@nustarenergy.com,7139265354,Rene Correa,7139263961,Terminal Contact,29.7471,-95.2931,TRUE,,TX,,7220 JW Peavy,6,6,,2,terminal,77011,none,none,both,in,0
752,Houston RDS Lubes,Galena Park,,,,,,29.7333,-95.23,TRUE,,TX,, ,18,18,,,terminal,77547,,,,,0
753,Hovensa,Jerusalem and Figtree Hill,,,,,,17.7102,-64.7544,TRUE,,VI,, ,243,243,,,terminal,820,,,,,0
754,Hudson,Providence,,,,,,41.7964,-71.3934,TRUE,,RI,, ,156,156,,,terminal,2905,,,,,0
755,Hugheston,Glasgow,,,,,,38.210685,-81.3761,TRUE,,WV,,2076 Stephen Street,324,324,,,terminal,25086,,,,,T-55-WV-3188
756,Hull,Hull,,,,,,30.1394,-94.6244,TRUE,,TX,,605 Co Rd 2427 E,303,303,,,terminal,77564,,,,,0
757,Huntington,Huntington,,,,,,40.89763,-85.452019,TRUE,,IN,,4648 N. Meridian Road,3,3,,,terminal,46750,,,,,T-35-IN-3208
758,Huntington,Huntington,,,,,,40.899926,-85.443194,TRUE,,IN,,4757 US 24 E,183,183,,,terminal,46750,,,,,T-35-IN-3211
759,Huntington,Huntington,,,,,,40.898299,-85.451711,TRUE,,IN,,4691 N Meridian St,5,5,,,terminal,46750,,,,,T-35-IN-3231
760,Huntington,Huntington,,,,,,40.893838,-85.451765,TRUE,,IN,,4413 North Meridian Rd,466,466,,,terminal,46750,,,,,T-35-IN-3234
761,Huntington CGO,Huntington,,,,,,40.893517,-85.451768,TRUE,,IN,,4393 N Meridian Rd US 24,9,9,,,terminal,46750,,,,,T-35-IN-3210
762,Huntington,Huntington,,,,,,40.8897,-85.4481,TRUE,,IN,, ,122,122,,,terminal,46750,,,,,0
763,Huntington Beach,Huntington Beach,,,,,,33.70214,-118.001093,TRUE,,CA,,17881 Gothard St.,12,12,,,terminal,92646,,,,,T-33-CA-4771
764,Hutchinson NUS,Hutchinson,tracy.wallick@nustarenergy.com,(620) 662-6579,Tracy Wallick,(620) 662-7561,Terminal Contact,38.0438,-97.8745,TRUE,,KS,114000,3300 East Avenue G,6,476,,2,terminal,67501,in,none,both,none,T-48-KS-3656
765,Hutchinson,Hutchinson,,,,,,38.046747,-97.852984,TRUE,,KS,,407 South Obee Road,172,172,,,terminal,67501,,,,,T-48-KS-3678
766,Hutchinson,Hutchinson,,,,,,38.0216,-97.9954,TRUE,,KS,, ,22,22,,,terminal,67501,,,,,0
767,Hutchinson,Hutchinson,,,,,,38.0301,-97.9769,TRUE,,KS,, ,84,84,,,terminal,67501,,,,,0
768,Imperial,Imperial,,,,7603520677,,32.825558,-115.564768,TRUE,,CA,459026,345 West Aten Road,4,134,,3,terminal,92251,in,,,,T-33-CA-4763
769,Indianapolis KMI,Indianapolis,,,Don Alexander,,Terminal Manager,39.802752,-86.215997,TRUE,,IN,462000,2500 N Tibbs Avenue,4,470,,,terminal,46222,in,,,,T-35-IN-3204
770,Indianapolis MRO,Indianapolis,,,,,,39.922988,-86.237176,TRUE,,IN,,4955 Robison Rd,3,3,,,terminal,46268,,,,,T-35-IN-3219
771,Indianapolis USO,Indianapolis,,,,,,39.813291,-86.327247,TRUE,,IN,,3350 N. Raceway Rd.,19,19,,,terminal,46234,,,,,T-35-IN-3227
772,Indianapolis,Arcadia,,,,,,40.174703,-86.030296,TRUE,,IN,,10700 E County Rd 300N,1,1,,,terminal,46030,,,,,T-35-IN-3238
773,Indianapolis,Indianapolis,,,,,,39.808,-86.3294,TRUE,,IN,, ,1,1,,,terminal,46234,,,,,0
774,Indianapolis MRO Asphalt,Indianapolis,,,,,,39.7859,-86.2284,TRUE,,IN,, ,3,3,,,terminal,46222,,,,,0
775,Indianola BPL,Indianola,,,,,,40.561967,-79.856554,TRUE,,PA,,State Route 910,1,1,,,terminal,15051,,,,,T-25-PA-1771
776,Indianola KMI,Indianola,,,,,,40.5657,-79.8594,TRUE,,PA,, ,4,123,,,terminal,15051,,,,,0
777,Ingleside,Aransas Pass,,,,,,27.8659,-97.1805,TRUE,,TX,,1269 Sunray Road,153,153,,,terminal,78336,,,,,0
778,Inkster,Romulus,,,,,,42.2531,-83.3085,TRUE,,MI,, ,5,5,,,terminal,48174,,,,,0
779,Intergulf Marine,La Porte,,,,,,29.7035,-95.0469,TRUE,,TX,, ,269,269,,,terminal,77571,,,,,0
780,Intracoastal City,Abbeville,,,,,,29.7838,-92.1606,TRUE,,LA,, ,13,13,,,terminal,70510,,,,,0
781,Intracoastal City,Intracoastal City,,,,,,29.7936,-92.1437,TRUE,,LA,, ,13,13,,,terminal,70510,,,,,0
782,Inver Grove Heights NGL,Inver Grove Heights,,,,,,44.7922,-93.0366,TRUE,,MN,, ,22,22,,,terminal,55077,,,,,0
783,Inwood,Inwood,,,,,,40.624744,-73.746135,TRUE,,NY,,464 Doughty Blvd,20,20,,,terminal,11096,,,,,T-11-NY-1305
784,Inwood,Inwood,,,,,,40.630027,-73.743181,TRUE,,NY,,1 Bay Blvd,281,281,,,terminal,11096,,,,,T-11-NY-1324
785,Iowa City,Coralville,,(319) 354-8643,,(319) 354-3976,,41.6831,-91.567,TRUE,,IA,600000,912 First Avenue ,2,477,,,terminal,52241,in,,both,,T-42-IA-3463
786,Iowa City,Iowa City,,,,,,41.6159,-91.4112,TRUE,,IA,, ,24,24,,,terminal,52240,,,,,0
787,Iowa City,Coralville,,,,,,41.6773,-91.5661,TRUE,,IA,, ,39,39,,,terminal,52241,,,,,0
788,Irving,Irving,,,,,,32.83755,-96.934891,TRUE,,TX,,1201 East Airport Freeway,16,16,,,terminal,75062,,,,,T-75-TX-2660
789,Kaunakakai,Kaunakakai,,,,,,21.0933,-157.024,TRUE,,HI,, ,277,277,,,terminal,96748,,,,,0
790,Jackson,Jackson,,,,,,42.310228,-84.427029,TRUE,,MI,,2090 Morrill Rd,3,3,,,terminal,49201,,,,,T-38-MI-3017
791,Jackson,Jackson,,,,,,42.301858,-84.432148,TRUE,,MI,,2001 Morrill Rd,9,9,,,terminal,49201,,,,,T-38-MI-3009
792,Jackson -Ngl,Jackson,,,,,,43.6029,-94.9944,TRUE,,MN,, ,22,22,,,terminal,56143,,,,,0
793,Jacksonville BPL,Jacksonville,,,,,,30.416823,-81.595623,TRUE,,FL,,2617 Heckscher Drive,1,1,,,terminal,32218,,,,,T-59-FL-2102
794,Jacksonville TMP,Jacksonville,,,,9043586725,,30.360156,-81.623823,TRUE,,FL,271000,3425 Talleyrand Avenue,8,8,,,terminal,32206,,,,,T-59-FL-2105
795,Jacksonville MRO,Jacksonville,,,,,,30.413632,-81.606785,TRUE,,FL,,2101 Heckscher Dr,3,3,,,terminal,32226,,,,,T-59-FL-2106
796,Jacksonville NUS,North Shore,tommy.taylor@nustarenergy.com,,Tommy Taylor,9043559575,Terminal Contact,30.379879,-81.63316,TRUE,,FL,2459000,6531 Evergreen Avenue,6,6,,4,terminal,32208,none,both,both,both,T-59-FL-2112
797,Jacksonville,Jacksonville,,,,,,30.357729,-81.623179,TRUE,,FL,,3101 Talley Rand Ave,63,63,,,terminal,32206,,,,,T-59-FL-2681
798,Jacksonville,Jacksonville,,,,,,30.3614,-81.6247,TRUE,,FL,, ,70,70,,,terminal,32206,,,,,0
799,Jacksonville North,Jacksonville,,,,,,30.3578,-81.6268,TRUE,,FL,, ,27,27,,,terminal,32206,,,,,0
800,Jacksonville South,Jacksonville,,,,,,30.3217,-81.6302,TRUE,,FL,, ,59,59,,,terminal,32202,,,,,0
801,Jal LPG,Jal,,,,,,32.228499,-103.2448,TRUE,,NM,, ,48,48,,,terminal,88252,,,,,0
802,Jamaica,Jamaica,,,,,,40.655246,-73.797769,TRUE,,NY,,Bldg. #90 (JFK Intl. Airport),218,218,,,terminal,11430,,,,,T-11-NY-1334
803,Jamestown,Jamestown,terry.mcdonald@nustarenergy.com,7017636142,Terry McDonald,7017636141,Terminal Contact,46.893377,-98.902925,TRUE,,ND,139000,3598 74th Avenue SE,6,6,,2,terminal,58401,in,none,both,none,T-45-ND-3502
804,Jamestown East,Jamestown,terry.mcdonald@nustarenergy.com,7012524191,Terry McDonald,7012524091,Terminal Contact,46.862976,-98.712785,TRUE,,ND,154000,3790 Highway 281 SE,6,6,,2,terminal,58401,in,none,both,none,T-45-ND-3503
805,Janesville,Janesville,,,,,,42.7309,-89.1224,TRUE,,WI,, ,24,24,,,terminal,53545,,,,,0
806,Janesville,Janesville,,,,,,42.7305,-89.1216,TRUE,,WI,, ,54,54,,,terminal,53545,,,,,0
807,Jebro,Sioux City,,,,,,42.4314,-96.3822,TRUE,,IA,, ,75,75,,,terminal,51111,,,,,0
808,Jefferson City,Jefferson City,,,,,,38.548605,-92.214611,TRUE,,MO,110000,2116 Idlewood,7,7,,2,terminal,65109,,,,,T-43-MO-3709
809,Joliet,Channahon,,,,,,41.410323,-88.206381,TRUE,,IL,,24420 W Durkee Road,35,35,,,terminal,60410,,,,,T-36-IL-3377
810,Jolietville,Westfield,,,,,,40.043391,-86.222311,TRUE,,IN,,17710 Mule Barn Road,67,67,,,terminal,46074,,,,,T-35-IN-3235
811,Jonesboro,Bono,,,,,,35.9615,-90.8382,TRUE,,AR,, ,45,45,,,terminal,72416,,,,,0
812,Jonesville,Jonesville,,,,,,31.58453,-91.93858,TRUE,,LA,,5010 Hwy 84,361,361,,,terminal,71343,,,,,T-72-LA-2392
813,Jonesville,Jonesville,,,,,,31.5801,-91.9509,TRUE,,LA,, ,355,355,,,terminal,71343,,,,,0
814,Junction,Lost Hills,,,,,,35.6448,-119.9566,TRUE,,CA,, ,7,7,,,terminal,93249,,,,,0
815,Junction City,Junction City,,1,,715-457-6404,,44.588962,-89.707997,TRUE,,WI,,2267 Highway 34 North,14,14,,,terminal,54443,,,,,T-39-WI-3071
816,Juneau,Juneau,,,,,,58.2979,-134.4353,TRUE,,AK,,3560 N. Douglas Hwy.,31,31,,,terminal,99801,,,,,T-91-AK-4515
817,Juneau,Juneau,,,,,,58.2887,-134.3897,TRUE,,AK,,120 Mt. Roberts St.,36,36,,,terminal,99801,,,,,T-91-AK-4524
818,Juneau,Juneau,,,,,,58.288303,-134.392771,TRUE,,AK,,1076 Jacobson Dr.,32,32,,,terminal,99801,,,,,T-91-AK-4575
819,Juneau,Juneau,,,,,,58.2886,-134.393,TRUE,,AK,, ,34,34,,,terminal,99801,,,,,0
820,Kahului,Kahului,,,,,,20.89281,-156.466,TRUE,,HI,,Wharf Rd. & Beach Place #10,279,279,,,terminal,96732,,,,,T-91-HI-4572
821,Kahului CVX,Kahului,,,,,,20.891371,-156.461487,TRUE,,HI,,100 A Hobron Avenue,12,12,,,terminal,96732,,,,,T-99-HI-4554
822,Kahului,Honolulu,,,,,,21.313292,-157.872887,TRUE,,HI,,789 N. Nimitz Hwy.,57,57,,,terminal,96817,,,,,T-99-HI-4557
823,Kahului ANDV,Kahului,,,,,,20.891371,-156.461487,TRUE,,HI,,140 H Hobron Ave,74,74,,,terminal,96732,,,,,T-99-HI-4563
824,Kahului,Kahului,,,,,,20.8929,-156.4619,TRUE,,HI,, ,57,57,,,terminal,96732,,,,,0
825,Kahului Baseyardmaui,Kahului,,,,,,20.894,-156.4623,TRUE,,HI,, ,60,60,,,terminal,96732,,,,,0
826,Kamuela,Kamuela,,,,,,20.021628,-155.670389,TRUE,,HI,,61-3651 Kawaihae Road,377,377,,,terminal,96743,,,,,T-99-HI-4567
827,Kamuela,Kamuela,,,,,,20.0384,-155.8298,TRUE,,HI,, ,371,371,,,terminal,96743,,,,,0
828,Kankakee,Kankakee,,,,,,41.111151,-87.874618,TRUE,,IL,,275 North 2750 West Road,1,1,,,terminal,60901,,,,,T-36-IL-3313
829,Kansas City P66,Kansas City,jay.v.guarino@p66.com,,Jay Guarino,(913) 342-0510,Terminal Contact,39.1257,-94.6092,TRUE,,KS,1294000,2029 Fairfax Trafficway,7,475,66000,5,terminal,66115,,,both,,T-43-KS-3672
830,Kansas City,Kansas City,,,,,,39.312391,-94.714772,TRUE,,MO,,217 Bern Street,453,453,,,terminal,64153,,,,,T-43-MO-3723
831,Kansas City SIN,Kansas City,,,,,,39.088018,-94.66648,TRUE,,KS,,3401 Fairbanks Avenue,40,40,,,terminal,66106,,,,,T-48-KS-3658
832,Kansas City MPL,Kansas City,jeff.myers@magellanlp.com,(913) 281-1623,Jeff Myers,(913) 281-0771,Terminal Manager,39.1401,-94.6027,TRUE,,KS,1780000,401 East Donovan Road,2,477,,,terminal,66115,in,,out,,T-48-KS-3659
833,Kansas City,Kansas City,,,,,,39.0307,-94.525,TRUE,,MO,, ,162,162,,,terminal,64130,,,,,0
834,Kaplan,Kaplan,,,,,,29.99798,-92.28485,TRUE,,LA,,41937 Hwy 3147,43,43,,,terminal,70548,,,,,T-72-LA-2404
835,Kapolei,Kapolei,,,,,,21.313038,-158.110322,TRUE,,HI,,91-480 Malakole Street,12,12,,,terminal,96707,,,,,T-99-HI-4570
836,Kay,Ponca City,,,,,,36.6809,-97.1047,TRUE,,OK,, ,7,7,,,terminal,74601,,,,,0
837,Kearney,Holt,,,,,,39.3908,-94.3704,TRUE,,MO,, ,24,24,,,terminal,64048,,,,,0
838,Kenai,Kenai,,,,,,60.57863,-151.317844,TRUE,,AK,,48775 Kenai Spur Hwy,17,17,,,terminal,99611,,,,,T-92-AK-4505
839,Kenner,Kenner,,,,,,29.99171,-90.258065,TRUE,,LA,,Freight Road,15,15,,,terminal,70062,,,,,T-72-LA-2356
840,Kenner,Kenner,,,,,,29.986332,-90.266921,TRUE,,LA,,143 Firehouse Dr.,10,10,,,terminal,70062,,,,,T-72-LA-2365
841,Ketchikan,Ketchikan,,,,,,55.34036,-131.63924,TRUE,,AK,,1100 Steadman St.,31,31,,,terminal,99901,,,,,T-91-AK-4516
842,Ketchikan,Saxman,,,,,,55.336263,-131.630944,TRUE,,AK,,900 Stedman St.,32,32,,,terminal,99901,,,,,T-91-AK-4542
843,Ketchikan,Saxman,,,,,,55.3365,-131.6309,TRUE,,AK,, ,34,34,,,terminal,99901,,,,,0
